ID,Source,Severity,Start_Time,End_Time,Start_Lat,Start_Lng,End_Lat,End_Lng,Distance(mi),Description,Street,City,County,State,Zipcode,Country,Timezone,Airport_Code,Weather_Timestamp,Temperature(F),Wind_Chill(F),Humidity(%),Pressure(in),Visibility(mi),Wind_Direction,Wind_Speed(mph),Precipitation(in),Weather_Condition,Amenity,Bump,Crossing,Give_Way,Junction,No_Exit,Railway,Roundabout,Station,Stop,Traffic_Calming,Traffic_Signal,Turning_Loop,Sunrise_Sunset,Civil_Twilight,Nautical_Twilight,Astronomical_Twilight
A-7182628,Source1,1,2020-04-17 09:29:30,2020-04-17 10:29:30,26.7069,-80.11936,26.7069,-80.11936,0.0,At Haverhill Rd - Earlier accident., N Haverhill Rd,West Palm Beach,Palm Beach,FL,33417-4638,US,US/Eastern,KPBI,2020-04-17 09:24:00,78.0,78.0,81.0,30.13,10.0,ESE,13.0,0.01,Mostly Cloudy,False,False,False,False,False,False,False,False,False,False,False,True,False,Day,Day,Day,Day
A-5404588,Source1,2,2022-04-21 10:01:00.000000000,2022-04-21 11:44:08.000000000,38.781024,-121.26582,38.780377,-121.265815,0.045,Incident on STANFORD RANCH RD near HOUSE 6750 Drive with caution., Stanford Ranch Rd,Roseville,Placer,CA,95678-1907,US,US/Pacific,KMCC,2022-04-21 09:55:00,55.0,55.0,88.0,29.83,10.0,SSE,9.0,0.0,Mostly Cloudy,False,False,True,False,False,False,False,False,False,True,False,False,False,Day,Day,Day,Day
A-156000,Source3,3,2016-08-12 16:45:00,2016-08-12 17:15:00,33.985249,-84.269348,,,0.0,Accident on GA-140 Holcomb Bridge Rd Westbound at Barnwell Rd.,Barnwell Rd,Alpharetta,Fulton,GA,30022,US,US/Eastern,KPDK,2016-08-12 16:53:00,91.0,,47.0,29.91,10.0,South,10.4,,Partly Cloudy,False,False,True,False,False,False,False,False,False,False,False,False,False,Day,Day,Day,Day
A-1871277,Source2,3,2019-09-20 15:22:16,2019-09-20 15:56:00,47.118706,-122.556908,,,0.0,Left lane blocked due to accident on I-5 Northbound near Berkeley St.,I-5 S,Tacoma,Pierce,WA,98433,US,US/Pacific,KGRF,2019-09-20 14:58:00,67.0,67.0,84.0,29.78,10.0,WNW,3.0,0.0,Cloudy,False,False,False,False,False,False,False,False,False,False,False,False,False,Day,Day,Day,Day
A-2031222,Source2,2,2019-06-03 16:55:43,2019-06-03 18:12:09,33.451355,-111.890343,,,0.0,Right lane closed due to accident on AZ-101-LOOP Southbound at Exit 50 Mckellips Rd.,E McKellips Rd,Scottsdale,Maricopa,AZ,85256,US,US/Mountain,KFFZ,2019-06-03 16:51:00,95.0,95.0,16.0,28.53,10.0,WSW,6.0,0.0,Fair,False,False,False,False,False,False,False,False,False,False,False,False,False,Day,Day,Day,Day
A-1167415,Source2,2,2021-02-04 12:48:21,2021-02-04 16:51:15,42.44891,-93.721138,,,7.769999980926514,Slow traffic and left hand shoulder blocked due to accident on US-20 Eastbound between Exit 140 IA-17 Exit 140 and Exit 145 CR-R38 Neely Ave.,US-20 E,Webster City,Hamilton,IA,50595,US,US/Central,KEBS,2021-02-04 12:55:00,19.0,1.0,93.0,28.41,0.5,NW,28.0,0.0,Light Snow / Windy,False,False,False,False,False,False,False,False,False,False,False,False,False,Day,Day,Day,Day
A-4021880,Source1,2,2022-06-23 10:57:30,2022-06-23 15:43:00,38.858169,-77.219815,38.884636,-77.220805,1.829,Stationary traffic on I-495 N from VA-650/Gallows Rd/Exit 7 (Capital Beltway/I-495) to I-66/Exit 9 (Capital Beltway/I-495) due to accident.,Capital Beltway N,Falls Church,Fairfax County,VA,22042,US,US/Eastern,KDCA,2022-06-23 10:59:00,68.0,68.0,84.0,29.93,10.0,E,8.0,0.0,Cloudy,False,False,False,False,False,False,False,False,False,False,False,False,False,Day,Day,Day,Day
A-1314019,Source2,3,2020-09-25 16:48:29,2020-09-25 17:38:44,32.434292,-82.50071,,,0.0,Lane blocked due to accident on I-16 Westbound after Exit 78 US-221.,GA-404 E,Soperton,Treutlen,GA,30457,US,US/Eastern,KVDI,2020-09-25 16:55:00,79.0,79.0,78.0,29.64,1.0,NW,13.0,0.0,Heavy T-Storm,False,False,False,False,False,False,False,False,False,False,False,False,False,Day,Day,Day,Day
A-721069,Source2,2,2022-02-04 19:57:43,2022-02-04 20:42:10,39.10696,-76.939789,,,0.0,Lane blocked due to accident on MD-198 Spencerville Rd near Santini Rd.,Santini Rd,Burtonsville,Montgomery,MD,20866,US,US/Eastern,KCGS,2022-02-04 19:55:00,36.0,28.0,72.0,30.0,10.0,NNW,10.0,0.0,Cloudy,False,False,False,False,False,False,False,False,False,False,False,False,False,Night,Night,Night,Night
A-3677476,Source1,2,2023-03-26 14:38:00.000000000,2023-03-26 17:29:42.000000000,37.636405,-122.087711,37.64479,-122.093729,0.6659999999999999,Accident on Nimitz Fwy N - I-880 N from Tennyson Rd (I-880) to CA-92/Jackson St (I-880).,I-880,Hayward,Alameda,CA,94544,US,US/Pacific,KHWD,2023-03-26 14:54:00,56.0,56.0,30.0,30.21,10.0,WNW,15.0,0.0,Fair,False,False,False,False,False,False,False,False,False,False,False,False,False,Day,Day,Day,Day
A-7221635,Source1,2,2020-01-14 00:41:00,2020-01-14 03:54:09,45.5116,-92.99298,45.5116,-92.99298,0.0,At MN-95/Exit 147 - Accident.,I-35 N,North Branch,Chisago,MN,55056,US,US/Central,KROS,2020-01-14 00:35:00,26.0,17.0,93.0,28.96,3.0,SSE,8.0,0.0,Cloudy,False,False,False,False,False,False,False,False,False,False,False,False,False,Night,Night,Night,Night
A-2964547,Source2,2,2018-03-23 07:43:01,2018-03-23 08:12:36,40.360512,-79.907692,,,0.0,Restrictions due to accident on Buttermilk Hollow Rd at Thompson Run Rd.,Buttermilk Hollow Rd,West Mifflin,Allegheny,PA,15122-1103,US,US/Eastern,KAGC,2018-03-23 07:53:00,26.1,21.9,63.0,30.24,10.0,NW,3.5,,Clear,False,False,False,False,False,False,False,False,False,False,False,True,False,Day,Day,Day,Day
A-4978332,Source1,2,2022-04-27 15:47:00,2022-04-27 17:26:03,32.991182,-117.210233,32.991561,-117.211458,0.076,Incident on CANCHA DE GOLF near HOUSE 5690 Drive with caution.,Via Osuna,Rancho Santa Fe,San Diego,CA,92091,US,US/Pacific,KCRQ,2022-04-27 15:53:00,61.0,61.0,67.0,29.61,9.0,SW,14.0,0.0,Fair,False,False,False,False,False,False,False,False,False,False,False,False,False,Day,Day,Day,Day
A-5188099,Source1,2,2022-08-21 06:40:30,2022-08-21 07:23:00,30.209486,-89.795661,30.18231,-89.824218,2.537,Stationary traffic on I-10 W from Oak Harbor Blvd (I-10) to US-11 (I-10) due to accident.,I-10 W,New Orleans,St. Tammany,LA,70129,US,US/Central,KNEW,2022-08-21 06:53:00,81.0,81.0,91.0,30.07,10.0,ESE,3.0,0.0,Fair,False,False,False,False,False,False,False,False,False,False,False,False,False,Day,Day,Day,Day
A-2577472,Source2,2,2018-09-11 08:16:17,2018-09-11 08:46:07,35.975361,-86.645889,,,0.0,Accident on McFarlin Rd at Kidd Rd.,McFarlin Rd,Nolensville,Williamson,TN,37135,US,US/Central,KMQY,2018-09-11 07:56:00,64.9,,87.0,29.89,10.0,NNE,6.9,,Overcast,False,False,False,False,False,False,False,False,False,False,False,False,False,Day,Day,Day,Day
A-4636068,Source1,2,2022-03-22 08:11:25,2022-03-22 09:50:27,38.42450022679128,-77.4196779724244,38.45774022679127,-77.40834797242442,2.377,Incident on I-95 NB near MM 142 Drive with caution.,I-95,Stafford,Stafford,VA,22554,US,US/Eastern,KRMN,2022-03-22 08:15:00,44.0,44.0,79.0,29.98,10.0,CALM,0.0,0.0,Fair,False,False,False,False,False,False,False,False,False,False,False,False,False,Day,Day,Day,Day
A-640922,Source2,2,2022-04-22 12:48:26,2022-04-22 13:33:38,35.34877,-97.529953,,,0.0,Crash on Western Ave near 119th St.,S Western Ave,Oklahoma City,Cleveland,OK,73170-5900,US,US/Central,KOKC,2022-04-22 12:52:00,74.0,74.0,68.0,28.65,10.0,S,23.0,0.0,Cloudy / Windy,False,False,True,False,False,False,False,False,False,False,False,True,False,Day,Day,Day,Day
A-513526,Source2,2,2022-09-07 17:47:35,2022-09-07 18:47:05,42.561768,-71.29819499999998,,,0.0,Lane blocked due to crash and fuel spillage on US-3 Northbound before Exit 78 Treble Cove Rd.,US-3 N,North Billerica,Middlesex,MA,01862,US,US/Eastern,KBED,2022-09-07 17:51:00,71.0,71.0,53.0,29.85,10.0,ENE,12.0,0.0,Mostly Cloudy,False,False,False,False,False,False,False,False,False,False,False,False,False,Day,Day,Day,Day
A-787339,Source3,3,2021-12-08 05:01:58,2021-12-08 07:42:33,35.237194,-80.854927,,,0.0,Left lane blocked due to accident on I-77 Southbound after Exit 10C 5th St.,I-77 S,Charlotte,Mecklenburg,NC,28216,US,US/Eastern,KCLT,2021-12-08 05:00:00,40.0,40.0,93.0,29.23,1.0,VAR,3.0,0.05,Heavy Rain,False,False,False,False,False,False,False,False,False,False,False,False,False,Night,Night,Night,Night
A-6051707,Source1,2,2021-10-09 15:52:04,2021-10-09 17:12:52,42.741664,-73.652872,42.74191500000001,-73.651848,0.055,NYSDOT TMC - Albany: Crash on NY 7 near Leonard Avenue (Troy) right shoulder closed, Leonard Ave,Troy,Rensselaer,NY,12180-6737,US,US/Eastern,KALB,2021-10-09 15:51:00,67.0,67.0,54.0,29.94,10.0,SE,9.0,0.0,Mostly Cloudy,False,False,False,False,False,False,False,False,False,False,False,False,False,Day,Day,Day,Day
A-667963,Source2,3,2022-03-22 18:51:15,2022-03-22 19:43:41,33.790718,-78.99678,,,0.0,Left lane blocked due to crash on US-501 Northbound at Singleton Ridge Rd.,US-501,Conway,Horry,SC,29526,US,US/Eastern,KHYW,2022-03-22 18:55:00,64.0,64.0,64.0,30.09,10.0,SSE,6.0,0.0,Partly Cloudy,False,False,False,False,False,False,False,False,False,False,False,True,False,Day,Day,Day,Day
A-7704632,Source1,4,2019-04-06 07:16:01,2019-04-06 18:25:00,44.062361,-123.049585,44.0624,-123.050137,0.028,Closed at I-5/OR-126 - Road closed due to accident.,I-5 S,Springfield,Lane,OR,97477,US,US/Pacific,KEUG,2019-04-06 06:54:00,48.0,42.0,80.0,29.33,10.0,S,14.0,0.02,Light Rain,False,False,False,False,False,False,False,False,False,False,False,False,False,Day,Day,Day,Day
A-189470,Source2,2,2016-10-18 17:38:19,2016-10-18 18:08:07,42.973778,-83.712906,,,0.01,Accident on Bristol Rd near Van Slyke Rd.,W Bristol Rd,Flint,Genesee,MI,48507-3226,US,US/Eastern,KFNT,2016-10-18 17:53:00,70.0,,65.0,29.72,10.0,West,13.8,,Clear,False,False,True,False,False,False,False,False,False,False,False,True,False,Day,Day,Day,Day
A-5876530,Source1,2,2021-05-26 07:00:00,2021-05-26 07:43:30,26.625007,-81.715533,26.616977,-81.714786,0.557,Stationary traffic on County Hwy-876 from Buckingham Rd (Gunnery Rd) to FL-884/Lee Blvd (Gunnery Rd) due to accident., Gunnery Rd N,Lehigh Acres,Lee,FL,33971-4909,US,US/Eastern,KRSW,2021-05-26 06:53:00,64.0,64.0,93.0,30.16,8.0,NE,3.0,0.0,Fair,False,False,False,False,False,False,False,False,False,False,False,False,False,Day,Day,Day,Day
A-7486092,Source1,2,2018-12-18 01:24:42,2018-12-18 05:24:42,44.16056,-121.25876,44.16056,-121.25876,0.0,At Tumalo Rd/Deschutes Market Rd - Accident., N Highway 97,Bend,Deschutes,OR,97703,US,,,,,,,,,,,,,False,False,False,False,False,False,False,False,False,False,False,False,False,Night,Night,Night,Night
A-2316959,Source2,3,2019-01-04 13:38:05,2019-01-04 14:07:42,40.427761,-79.891373,,,0.0,Lane blocked due to accident on I-376 Westbound at Exit 77 Monongahela Ave.,S Braddock Ave,Pittsburgh,Allegheny,PA,15218,US,US/Eastern,KAGC,2019-01-04 13:53:00,39.0,,82.0,29.85,8.0,Calm,,,Clear,False,False,True,False,False,False,False,False,False,False,False,True,False,Day,Day,Day,Day
A-7307294,Source1,2,2019-12-10 07:34:34,2019-12-10 08:04:10,28.17606,-82.39201,28.16451,-82.39936999999998,0.915,At I-275/Exit 274 - Accident. Right lane blocked.,I-75 S,Wesley Chapel,Pasco,FL,33544,US,US/Eastern,KVDF,2019-12-10 07:35:00,59.0,59.0,100.0,30.09,2.0,CALM,0.0,0.0,Fog,False,False,False,False,False,False,False,False,False,False,False,False,False,Day,Day,Day,Day
A-2490901,Source2,2,2018-10-01 04:34:17,2018-10-01 05:03:50,35.761417,-119.238922,,,0.0,Accident on CA-155 Garces Hwy at Norwalk St.,Garces Hwy,Delano,Kern,CA,93215,US,US/Pacific,KPTV,2018-10-01 04:56:00,57.9,,75.0,29.9,10.0,Calm,,,Clear,False,False,False,False,False,False,False,False,False,False,False,False,False,Night,Night,Night,Night
A-6545259,Source1,2,2021-01-30 15:14:23.000000000,2021-01-30 18:14:48.000000000,45.302065,-121.7462,45.302368,-121.746205,0.021,A crash has occurred at East Government Camp Loop use caution.,E Government Camp Loop,Government Camp,Clackamas,OR,97028,US,US/Pacific,KCZK,2021-01-30 14:53:00,46.0,39.0,79.0,29.9,10.0,E,17.0,0.0,Cloudy,False,False,False,False,False,False,False,False,False,False,False,False,False,Day,Day,Day,Day
A-4590165,Source1,2,2022-10-14 22:27:17,2022-10-15 00:38:01,40.846059,-73.930479,40.851604,-73.952048,1.1909999999999998,Port Authority NY/NJ: Crash on George Washington Bridge Upper Level westbound Upper Trans Manhattan Expressway (Manhattan) 1 Center lane of 3 lanes blocked,I-95 S,New York,New York,NY,10033,US,US/Eastern,KNYC,2022-10-14 22:51:00,59.0,59.0,58.0,29.91,10.0,NNW,3.0,0.0,Fair,False,False,False,False,False,False,False,False,False,False,False,False,False,Night,Night,Night,Night
A-5623799,Source1,2,2021-11-10 22:33:19,2021-11-11 01:24:19,37.871369,-75.558504,37.870333,-75.558352,0.072,Incident on US-13 SB near LANKFORD HWY Left lane blocked., Hallwood Rd,Hallwood,Accomack,VA,23359-2346,US,US/Eastern,KWAL,2021-11-10 22:54:00,51.0,51.0,96.0,30.19,10.0,CALM,0.0,0.0,Fair,False,False,False,False,False,False,False,False,False,False,False,False,False,Night,Night,Night,Night
A-7528000,Source1,2,2018-10-30 16:24:01,2018-10-30 16:53:26,34.33692,-117.25912,34.33692,-117.25912,0.0,At Grass Valley Rd - Accident., State Highway 173,Hesperia,San Bernardino,CA,92345,US,US/Pacific,KVCV,2018-10-30 16:50:00,,,,29.99,10.0,North,8.1,,Clear,False,False,False,False,False,False,False,False,False,False,False,False,False,Day,Day,Day,Day
A-3116516,Source2,2,2017-12-08 16:00:56,2017-12-08 16:30:25,41.751995,-87.96725500000002,,,0.0,Accident on Plainfield Rd at 75th St.,75th St,Darien,DuPage,IL,60561,US,US/Central,KLOT,2017-12-08 15:55:00,34.0,26.6,46.0,29.89,10.0,WSW,9.2,,Clear,False,False,True,False,False,False,False,False,False,False,False,True,False,Day,Day,Day,Day
A-378128,Source2,3,2017-02-16 17:50:07,2017-02-16 18:19:46,38.802006,-77.163635,,,0.01,Right hand shoulder closed due to accident on I-395 Northbound before Exits 2A 2B Edsall Rd.,I-395 N,Alexandria,Fairfax County,VA,22312,US,US/Eastern,KDCA,2017-02-16 17:52:00,37.0,28.1,39.0,29.87,10.0,NW,15.0,,Clear,False,False,False,False,False,False,False,False,False,False,False,False,False,Night,Day,Day,Day
A-2483463,Source2,2,2018-11-27 07:32:44,2018-11-27 08:02:18,31.776508000000003,-106.225082,,,0.0,Accident on Tim Foster St at Charles Foster Ave.,Charles Foster Ave,El Paso,El Paso,TX,79938,US,US/Mountain,KELP,2018-11-27 07:51:00,37.9,35.5,41.0,30.2,10.0,NNE,3.5,,Clear,False,False,False,False,False,False,False,False,False,False,False,False,False,Day,Day,Day,Day
A-2431240,Source2,3,2018-11-04 22:41:28,2018-11-04 23:11:06,25.98505,-80.16546600000002,,,0.0,Two lanes blocked due to accident on I-95 Northbound at Exits 18 19 FL-858 Hallandale Beach Blvd.,W Hallandale Beach Blvd,Hallandale,Broward,FL,33009,US,US/Eastern,KFLL,2018-11-04 22:53:00,80.1,,74.0,30.09,10.0,ESE,16.1,,Scattered Clouds,False,False,False,False,False,False,False,False,False,False,False,False,False,Night,Night,Night,Night
A-309036,Source2,2,2016-10-26 12:46:56,2016-10-26 13:16:38,47.635887,-122.228004,,,0.01,Right lane blocked due to accident on WA-520 Westbound at 84th Ave.,WA-520 E,Bellevue,King,WA,98004,US,US/Pacific,KBFI,2016-10-26 12:53:00,55.9,,97.0,29.77,9.0,SSE,3.5,0.04,Light Rain,False,False,True,False,False,False,False,False,False,False,False,False,False,Day,Day,Day,Day
A-4856900,Source1,2,2022-10-15 11:28:00,2022-10-15 14:33:10,34.44978833,-118.42359424,34.44888833,-118.42236424,0.094,Accident on Sand Canyon Rd from Sierra Hwy to Thompson Ranch Dr., Sierra Hwy,Canyon Country,Los Angeles,CA,91351-1415,US,US/Pacific,K3A6,2022-10-15 11:51:00,70.0,70.0,71.0,29.07,10.0,E,7.0,0.0,Cloudy,False,False,False,False,False,False,False,False,False,False,False,False,False,Day,Day,Day,Day
A-6200394,Source1,2,2021-09-26 15:17:30,2021-09-26 17:30:00,38.913531,-76.850453,38.945395,-76.858135,2.24,Stationary traffic on I-495 N - I-95 N from Arena Dr/Exit 16 (Capital Beltway/I-495) to US-50/Exit 19 (Capital Beltway/I-495) due to accident.,Capital Beltway N,Upper Marlboro,Prince George's,MD,20774,US,US/Eastern,KADW,2021-09-26 15:26:00,73.0,73.0,33.0,29.68,10.0,NW,15.0,0.0,Fair,False,False,False,False,True,False,False,False,False,False,False,False,False,Day,Day,Day,Day
A-4708908,Source1,2,2022-02-27 18:32:30,2022-02-27 19:19:00,34.076692,-118.219389,34.061355,-118.21546200000002,1.083,Slow traffic on Golden State Fwy S - I-5 S from Humboldt St (I-5) to Mission Rd (I-5) due to accident.,Golden State Fwy S,Los Angeles,Los Angeles,CA,90031,US,US/Pacific,KCQT,2022-02-27 18:47:00,62.0,62.0,24.0,29.96,10.0,CALM,0.0,0.0,Fair,False,False,False,False,False,False,False,False,False,False,False,False,False,Night,Night,Day,Day
A-6665540,Source1,2,2020-10-29 23:17:48,2020-10-30 00:42:46,42.935804,-78.904033,42.947914,-78.90888299999997,0.872,Stationary traffic on I-190 from Amherst St/Exit 12 (I-190) to Ontario St/Exit 14 (I-190) due to accident.,I-190 N,Buffalo,Erie,NY,14207,US,US/Eastern,KBUF,2020-10-29 23:29:00,41.0,34.0,89.0,29.05,10.0,NNE,13.0,0.0,Cloudy,False,False,False,False,False,False,False,False,False,False,False,False,False,Night,Night,Night,Night
A-7551224,Source1,3,2018-08-23 00:00:24,2018-08-23 00:29:48,25.73778,-80.38459,25.7325,-80.38436,0.365,At SR-976/40th St/Exit 23 - Accident.,Florida's Tpke S,Miami,Miami-Dade,FL,33175,US,US/Eastern,KTMB,2018-08-23 00:53:00,79.0,,84.0,30.04,10.0,Calm,,,Clear,False,False,False,False,False,False,False,False,False,False,False,False,False,Night,Night,Night,Night
A-2229056,Source2,2,2019-03-20 08:10:59,2019-03-20 08:57:02,39.095516,-94.648064,,,0.0,Right hand shoulder blocked due to accident on I-70 Eastbound at 18th St.,I-70 E,Kansas City,Wyandotte,KS,66102,US,US/Central,KNKA,2019-03-20 11:37:00,,,,,,North,,,,False,False,False,False,False,False,False,False,False,False,False,False,False,Day,Day,Day,Day
A-6251839,Source1,2,2021-03-29 07:40:50,2021-03-29 13:40:57,28.449911,-81.480513,28.449397,-81.477944,0.16,Slow traffic on FL-482 from Dr Phillips Blvd to Lake Marie Way due to accident., W Sand Lake Rd,Orlando,Orange,FL,32836,US,US/Eastern,KISM,2021-03-29 07:38:00,70.0,70.0,100.0,30.02,0.5,CALM,0.0,0.0,Fog,False,False,False,False,False,False,False,False,False,False,False,False,False,Day,Day,Day,Day
A-6358024,Source1,2,2021-02-08 23:52:00,2021-02-09 01:27:46,27.098573,-82.38450300000002,27.096169,-82.384845,0.1669999999999999,Incident on JACARANDA BLVD near PORTOPALO DR Drive with caution., Jacaranda Blvd,Venice,Sarasota,FL,34292-2404,US,US/Eastern,KVNC,2021-02-08 23:53:00,69.0,69.0,87.0,30.1,10.0,E,3.0,0.0,Fair,False,False,False,False,False,False,False,False,False,False,False,False,False,Night,Night,Night,Night
A-4433896,Source1,2,2023-01-25 14:35:00,2023-01-25 15:50:35,28.467188,-80.801384,28.465082,-80.801399,0.146,Incident on RENA AVE near MIRAMAR ST Drive with caution., Balfern St,Cocoa,Brevard,FL,32927-8280,US,US/Eastern,KTIX,2023-01-25 14:50:00,88.0,88.0,40.0,29.89,7.0,S,18.0,,Partly Cloudy,False,False,False,False,False,False,False,False,False,False,False,False,False,Day,Day,Day,Day
A-338021,Source2,2,2017-02-24 06:29:28,2017-02-24 07:03:00,37.44928,-122.123245,,,0.01,Accident on US-101 Northbound at Embarcadero Rd /.,US-101 N,Palo Alto,Santa Clara,CA,94303,US,US/Pacific,KPAO,2017-02-24 06:47:00,39.2,,93.0,30.24,10.0,Calm,,,Clear,False,False,False,False,True,False,False,False,False,False,False,False,False,Night,Day,Day,Day
A-4624434,Source1,2,2021-12-31 16:09:30.000000000,2021-12-31 17:08:30.000000000,40.838239,-73.933702,40.830638,-73.935185,0.531,Slow traffic from I-95/Amsterdam Ave/Exit 23 (Harlem River Dr) to 8th Ave/155th St/Exit 23 (Harlem River Dr) due to accident.,Harlem River Dr S,New York,New York,NY,10032,US,US/Eastern,KNYC,2021-12-31 15:51:00,51.0,51.0,83.0,29.83,8.0,SW,7.0,0.0,Cloudy,False,False,False,False,True,False,False,False,False,False,False,False,False,Day,Day,Day,Day
A-775424,Source2,2,2021-12-16 21:29:07,2021-12-16 21:58:46,34.153255,-118.6521,,,0.0,#1 lane blocked due to accident on US-101 Eastbound at Calabasas Rd.,Parkway Calabasas,Calabasas,Los Angeles,CA,91302,US,US/Pacific,KVNY,2021-12-16 21:51:00,51.0,51.0,86.0,29.21,4.0,CALM,0.0,0.0,Cloudy,False,False,False,False,False,False,False,False,False,False,False,False,False,Night,Night,Night,Night
A-5316151,Source1,2,2023-02-05 21:10:30,2023-02-05 21:37:00,41.387154,-73.497075,41.383508,-73.48432,0.708,Slow traffic on I-84 E from Mill Plain Rd/Old Ridgebury Rd/Exit 2 (I-84) to US-7/Exit 3 (I-84) due to accident.,I-84 E,Danbury,Fairfield,CT,06810,US,US/Eastern,KDXR,2023-02-05 20:53:00,38.0,38.0,60.0,29.52,10.0,CALM,0.0,0.0,Fair,False,False,False,False,False,False,False,False,False,False,False,False,False,Night,Night,Night,Night
A-5495882,Source1,2,2021-05-29 23:49:40,2021-05-30 02:14:54,34.061732,-81.173354,34.062259000000005,-81.173524,0.038,Incident on QUAIL TRACE DR near AVERY PLACE DR Drive with caution., Avery Place Dr,Columbia,Lexington,SC,29212-2130,US,US/Eastern,KCAE,2021-05-29 23:56:00,69.0,69.0,61.0,29.65,10.0,W,8.0,0.0,Fair,False,False,False,False,False,False,False,False,False,False,False,False,False,Night,Night,Night,Night
A-6062090,Source1,2,2021-11-27 15:20:55,2021-11-27 17:47:10,33.913326,-84.286528,33.9201,-84.331476,2.619,Slow traffic on I-285 W - GA-407 W from US-23/Buford Hwy/Exit 32 (I-285) to Ashford Dunwoody Rd/Exit 29 (I-285) due to accident.,GA-407 W,Atlanta,DeKalb,GA,30360,US,US/Eastern,KPDK,2021-11-27 14:53:00,60.0,,25.0,28.98,10.0,,,0.0,Fair,False,False,False,False,False,False,False,False,False,False,False,False,False,Day,Day,Day,Day
A-140961,Source2,2,2016-09-08 11:33:18,2016-09-08 12:18:18,28.465607,-81.27565799999998,,,0.0,Accident on FL-15 Narcoossee Rd at Lee Vista Blvd.,Narcoossee Rd,Orlando,Orange,FL,32829,US,US/Eastern,KMCO,2016-09-08 11:53:00,84.9,,65.0,30.1,10.0,ENE,12.7,,Mostly Cloudy,False,False,True,False,False,False,False,False,False,False,False,True,False,Day,Day,Day,Day
A-290837,Source2,2,2016-10-13 21:44:20,2016-10-13 22:30:00,29.653435,-95.445572,,,0.01,Accident on Main St at Holmes Rd.,Town Plaza Dr,Houston,Harris,TX,77045,US,US/Central,KMCJ,2016-10-13 21:35:00,77.0,,74.0,30.07,10.0,East,5.8,,Clear,False,False,False,False,False,False,False,False,False,False,False,False,False,Night,Night,Night,Night
A-2977576,Source2,2,2018-03-29 03:16:00,2018-03-29 04:00:43,33.770603,-117.985657,,,0.0,Accident on CA-22 Eastbound before Exit 8 CA-39 Beach Blvd.,CA-22 E,Garden Grove,Orange,CA,92844,US,US/Pacific,KSLI,2018-03-29 03:29:00,51.8,,94.0,30.04,10.0,Calm,,,Partly Cloudy,False,False,False,False,False,False,False,False,False,False,False,False,False,Night,Night,Night,Night
A-1828277,Source2,3,2019-11-18 08:59:27,2019-11-18 09:29:06,32.806572,-96.840332,,,0.0,Accident on Stemmons Fwy Northbound at Medical District Dr.,Medical District Dr,Dallas,Dallas,TX,75207,US,US/Central,KDAL,2019-11-18 08:53:00,51.0,51.0,63.0,29.5,10.0,CALM,0.0,0.0,Fair,False,False,False,False,False,False,False,False,False,False,False,False,False,Day,Day,Day,Day
A-4106065,Source1,2,2022-11-15 13:59:00,2022-11-15 15:41:55,30.412138,-91.080348,30.411195000000006,-91.07842,0.132,Incident on JEFFERSON HWY near WILLOW BAY DR Drive with caution., Jefferson Hwy,Baton Rouge,East Baton Rouge,LA,70809-2475,US,US/Central,KBTR,2022-11-15 13:53:00,50.0,50.0,74.0,30.1,10.0,N,12.0,0.0,Cloudy,False,False,False,False,False,False,False,False,False,False,False,False,False,Day,Day,Day,Day
A-4219159,Source1,2,2022-01-28 07:09:30,2022-01-28 12:08:30,33.855694,-117.787199,33.846471,-117.821048,2.044,Slow traffic on Riverside Fwy W - CA-91 W from Weir Canyon Rd/Yorba Linda Blvd (CA-91) to CA-55/Costa Mesa Fwy (CA-91) due to accident.,CA-91 W,Anaheim,Orange,CA,92807,US,US/Pacific,KFUL,2022-01-28 06:53:00,54.0,54.0,23.0,30.13,10.0,E,7.0,0.0,Fair,False,False,False,False,False,False,False,False,False,False,False,False,False,Day,Day,Day,Day
A-4732527,Source1,2,2022-09-22 11:38:00.000000000,2022-09-22 14:23:00.000000000,40.768284,-73.692161,40.772896,-73.679823,0.72,NYSDOT - Region 10: Crash on I-495 westbound between Exit 29 - Springfield Boulevard (New York) and Exit 28 - Oceania Street / Francis Lewis Boulevard - WestBound Only (New York) right lane and entrance ramp closed,Long Island Expy E,Great Neck,Nassau,NY,11020,US,US/Eastern,KLGA,2022-09-22 11:33:00,73.0,73.0,79.0,29.55,4.0,W,23.0,0.03,Heavy T-Storm / Windy,False,False,False,False,False,False,False,False,False,False,False,False,False,Day,Day,Day,Day
A-618064,Source2,1,2022-05-18 17:34:09,2022-05-18 18:03:46,36.15332,-95.922523,,,0.0,Crash on 5th Pl at Yale Ave.,E 5th Pl S,Tulsa,Tulsa,OK,74112-2723,US,US/Central,KTUL,2022-05-18 17:53:00,89.0,89.0,57.0,29.04,10.0,ESE,8.0,0.0,Mostly Cloudy,False,False,True,False,False,True,False,False,False,True,False,False,False,Day,Day,Day,Day
A-2698194,Source2,2,2018-07-11 07:48:21,2018-07-11 08:33:04,28.346886,-81.673508,,,0.0,Accident on US-27 at High Grove Blvd.,Highway 27,Davenport,Polk,FL,33897,US,US/Eastern,KISM,2018-07-11 07:56:00,78.8,,83.0,30.04,10.0,Calm,,,Clear,False,False,False,False,False,False,False,False,False,False,False,False,False,Day,Day,Day,Day
A-888012,Source2,2,2021-09-22 07:30:15,2021-09-22 09:24:18,46.45237,-92.969879,,,0.0,Accident on MN-27 at CR-12.,Highway 27,Kettle River,Carlton,MN,55757-8655,US,US/Central,KMZH,2021-09-22 17:45:00,,,,,,,,0.0,,False,False,False,False,False,False,False,False,False,False,False,False,False,Day,Day,Day,Day
A-2205084,Source2,2,2019-03-06 17:43:14,2019-03-06 18:13:00,33.55299,-112.058746,,,0.0,Accident on 11th St at Northern Ave.,N 11th St,Phoenix,Maricopa,AZ,85020-3709,US,US/Mountain,KSDL,2019-03-06 17:53:00,81.0,,14.0,29.87,10.0,WSW,5.8,,Clear,False,False,False,False,False,False,False,False,False,True,False,False,False,Day,Day,Day,Day
A-2026512,Source2,2,2019-08-16 10:29:08,2019-08-16 10:58:57,41.047195,-73.803398,,,0.0,Accident on I-287 Cross Westchester Expy Westbound before Exit 4 NY-100A Knollwood Rd.,Cross Westchester Expy W,White Plains,Westchester,NY,10603,US,US/Eastern,KHPN,2019-08-16 10:56:00,75.0,75.0,66.0,29.58,10.0,S,6.0,0.0,Partly Cloudy,False,False,False,False,False,False,False,False,False,False,False,False,False,Day,Day,Day,Day
A-1733157,Source2,2,2019-12-23 06:59:03,2019-12-23 07:58:48,34.50687,-81.936279,,,0.0,Accident on Leesville Church Rd at Torrington Rd.,Torrington Rd,Laurens,Laurens,SC,29360-7029,US,US/Eastern,KLUX,2019-12-23 06:55:00,45.0,38.0,100.0,29.27,4.0,NE,14.0,0.17,Rain,False,False,False,False,False,False,False,False,False,False,False,False,False,Night,Night,Day,Day
A-6688283,Source1,2,2020-10-16 13:17:30,2020-10-17 00:30:53,25.909895,-80.236127,25.908194,-80.235057,0.135,Queuing traffic on FL-9 from Washington Ave to NW 7th Ave due to accident., NW 22nd Ave,Opa Locka,Miami-Dade,FL,33054-2865,US,US/Eastern,KOPF,2020-10-16 13:28:00,87.0,87.0,67.0,29.96,10.0,ESE,8.0,0.0,Thunder in the Vicinity,False,False,False,False,False,False,False,False,False,False,False,False,False,Day,Day,Day,Day
A-3405329,Source2,2,2017-08-28 13:31:14,2017-08-28 14:30:27,35.844048,-78.614098,,,0.0,Accident on Falls of Neuse Rd at Pacific Dr.,Pacific Dr,Raleigh,Wake,NC,27609-8123,US,US/Eastern,KRDU,2017-08-28 13:51:00,77.0,,56.0,30.09,10.0,ENE,10.4,,Mostly Cloudy,False,False,True,False,False,False,False,False,False,False,False,True,False,Day,Day,Day,Day
A-4354607,Source1,2,2022-07-03 14:32:03,2022-07-03 15:47:03,32.852409,-96.672823,32.853299,-96.672801,0.062,Incident on JOAQUIN DR near HOUSLEY DR Drive with caution., Joaquin Dr,Dallas,Dallas,TX,75228,US,US/Central,KDAL,2022-07-03 14:53:00,96.0,96.0,40.0,29.43,10.0,SSE,13.0,0.0,Mostly Cloudy,False,False,False,False,False,False,False,False,False,False,False,False,False,Day,Day,Day,Day
A-800002,Source2,2,2021-11-30 05:26:12,2021-11-30 05:56:04,35.076744,-89.95121800000004,,,0.0,Accident on US-78 at American Way.,Lamar Ave,Memphis,Shelby,TN,38118,US,US/Central,KMEM,2021-11-30 05:54:00,45.0,43.0,71.0,29.73,10.0,SW,5.0,0.0,Fair,False,False,False,False,False,False,False,False,False,False,False,True,False,Night,Night,Night,Day
A-2597015,Source2,2,2018-09-20 08:02:11,2018-09-20 08:31:59,35.97736,-86.56235500000004,,,0.0,Accident on Stonecrest Pkwy at Cedar Grove Rd.,Stonecrest Pkwy,Smyrna,Rutherford,TN,37167-6811,US,US/Central,KMQY,2018-09-20 07:56:00,73.0,,87.0,29.81,10.0,SE,3.5,,Clear,False,False,False,False,False,False,False,False,False,False,False,False,False,Day,Day,Day,Day
A-5477043,Source1,2,2021-12-27 04:19:30,2021-12-27 05:11:00,39.51748967151872,-119.63230490627464,39.52507967151872,-119.69614490627464,3.443,Slow traffic on I-80 W from I-80/Mustang Ranch Rd/Exit 23 (I-80) to Vista Blvd/Greg St/Exit 21 (I-80) due to accident.,I-80,Sparks,Washoe,NV,89434,US,US/Pacific,KRNO,2021-12-27 04:17:00,30.0,25.0,85.0,25.21,9.0,S,5.0,0.0,Cloudy,False,False,False,False,False,False,False,False,False,False,False,False,False,Night,Night,Night,Night
A-1105444,Source2,2,2021-03-26 20:56:53,2021-03-26 21:49:07,36.765781,-119.77771,,,0.0,Accident on CA-41 Southbound at Exit 129 Mckinley Ave.,CA-41 N,Fresno,Fresno,CA,93703,US,US/Pacific,KFAT,2021-03-26 20:53:00,63.0,63.0,38.0,29.76,10.0,CALM,0.0,0.0,Fair,False,False,False,False,False,False,False,False,False,False,False,False,False,Night,Night,Night,Night
A-4343764,Source1,2,2022-04-05 03:39:23,2022-04-05 05:43:42,40.605468,-74.314054,40.607886,-74.312942,0.177,NJ Turnpike Auth.: Crash on Garden State Parkway northbound North of Colonia Service Area (Woodbridge Twp) right shoulder blocked,Garden State Pkwy,Colonia,Middlesex,NJ,07067,US,US/Eastern,KLDJ,2022-04-05 03:35:00,42.0,42.0,64.0,30.03,,CALM,0.0,0.0,Cloudy,False,False,False,False,False,False,False,False,False,False,False,False,False,Night,Night,Night,Night
A-5885558,Source1,2,2021-09-16 08:43:00.000000000,2021-09-16 10:56:12.000000000,25.733,-80.336792,25.73422,-80.335753,0.106,Slow traffic on County Hwy-913 - FL-976 - FL-973 from SW 89th Ave to SW 38th St due to accident., SW 40th St,Miami,Miami-Dade,FL,33165-5470,US,US/Eastern,KMIA,2021-09-16 08:53:00,83.0,83.0,82.0,29.97,10.0,CALM,0.0,0.0,Partly Cloudy,False,False,False,False,False,False,False,False,True,False,False,False,False,Day,Day,Day,Day
A-3260760,Source2,3,2017-10-23 09:16:37,2017-10-23 09:46:28,41.873112,-71.39057199999998,,,0.0,Left lane blocked due to accident on I-95 Southbound at Exit 27 Pearl St.,I-95 S,Pawtucket,Providence,RI,02860,US,US/Eastern,KSFZ,2017-10-23 09:19:00,53.6,,100.0,30.37,0.2,East,3.5,,Fog,False,False,False,False,False,False,False,False,False,False,False,False,False,Day,Day,Day,Day
A-5685276,Source1,2,2021-12-22 13:03:45,2021-12-22 15:15:49,35.149711,-80.834503,35.148162,-80.83015,0.268,Slow traffic from Park Rd (Fairview Rd) to Colony Rd (Fairview Rd) due to accident.,S Park Dr,Charlotte,Mecklenburg,NC,28210,US,US/Eastern,KCLT,2021-12-22 12:52:00,59.0,59.0,29.0,29.04,10.0,WNW,9.0,0.0,Fair,False,False,True,False,False,False,False,False,False,False,False,True,False,Day,Day,Day,Day
A-2780512,Source2,2,2018-06-25 07:47:40,2018-06-25 08:17:14,35.861828,-78.54888199999998,,,0.0,Right lane blocked due to accident on US-401 Louisburg Rd Southbound near I-540.,Louisburg Rd,Raleigh,Wake,NC,27616,US,US/Eastern,KRDU,2018-06-25 07:51:00,75.9,,91.0,30.04,10.0,Calm,,,Overcast,False,False,False,False,False,False,False,False,False,False,False,True,False,Day,Day,Day,Day
A-2541381,Source2,2,2018-10-24 06:38:03,2018-10-24 07:07:31,35.754738,-109.627014,,,0.0,Right lane blocked due to accident on AZ-264 Eastbound at US-191.,US Highway 191,Ganado,Apache,AZ,86505,US,US/Mountain,KRQE,2018-10-24 06:53:00,39.0,,93.0,29.98,10.0,Calm,,,Clear,False,False,False,False,False,False,False,False,False,False,False,False,False,Night,Night,Day,Day
A-3779719,Source1,2,2022-07-15 08:48:30,2022-07-15 12:31:00,41.575638,-87.26675300000002,41.567589,-87.343175,3.989,Stationary traffic on I-94 W - I-80 W - US-6 W from US-6/IN-51/Ripley St/Exit 15 (I-94/I-80) to IN-53/Broadway/Exit 10 (I-94/I-80) due to accident.,I-80 W,Lake Station,Lake,IN,46405,US,US/Central,KGYY,2022-07-15 08:45:00,68.0,68.0,83.0,29.51,7.0,CALM,0.0,0.0,Light Rain,False,False,False,False,False,False,False,False,False,False,False,False,False,Day,Day,Day,Day
A-2511338,Source2,2,2018-10-11 16:44:39,2018-10-11 17:14:08,42.319405,-87.856148,,,0.0,Accident on Martin Luther King Jr Dr Westbound at Lewis Ave.,Martin Luther King Jr Dr,North Chicago,Lake,IL,60064-2513,US,US/Central,KUGN,2018-10-11 16:55:00,48.0,,52.0,29.95,10.0,WNW,10.4,,Partly Cloudy,False,False,False,False,False,False,False,False,False,False,False,True,False,Day,Day,Day,Day
A-461322,Source2,3,2017-06-16 13:33:50,2017-06-16 14:03:32,34.071758,-118.09948,,,0.0,Right hand shoulder blocked due to accident on I-10 Eastbound at Exit 25A San Bernardino Fwy.,Del Mar Ave,Rosemead,Los Angeles,CA,91770-2361,US,US/Pacific,KEMT,2017-06-16 13:45:00,95.0,,25.0,29.87,10.0,SSW,9.2,,Clear,False,False,False,False,True,False,False,False,False,False,False,False,False,Day,Day,Day,Day
A-3750105,Source1,2,2022-05-25 17:10:49.000000000,2022-05-25 19:13:12.000000000,25.942293,-80.30808499999998,25.943203,-80.306889,0.097,Slow traffic on FL-860 from Bobolink Dr to NW 188th Ter due to accident.,NW 186th St,Hialeah,Miami-Dade,FL,33015,US,US/Eastern,KOPF,2022-05-25 16:53:00,87.0,87.0,55.0,30.02,10.0,SE,18.0,0.0,Partly Cloudy,False,False,False,False,False,False,False,False,True,False,False,False,False,Day,Day,Day,Day
A-6972285,Source1,2,2020-11-18 21:34:03,2020-11-18 22:52:45,40.246342,-75.647348,40.246138,-75.64574,0.086,Incident on KING ST near N CHARLOTTE ST Drive with caution., King St,Pottstown,Montgomery,PA,19464-5515,US,US/Eastern,KPTW,2020-11-18 21:54:00,23.0,23.0,78.0,30.26,10.0,CALM,0.0,0.0,Fair,False,False,False,False,False,False,False,False,False,False,False,True,False,Night,Night,Night,Night
A-2664143,Source2,2,2018-08-23 15:40:49,2018-08-23 16:47:44,34.989628,-82.24294300000003,,,0.0,Accident on Gap Creek Rd at Old Wagon Rd.,Old Wagon Rd,Greer,Greenville,SC,29651-5202,US,US/Eastern,KGSP,2018-08-23 15:53:00,81.0,,34.0,30.06,10.0,Variable,3.5,,Clear,False,False,False,False,False,False,False,False,False,False,False,False,False,Day,Day,Day,Day
A-4768026,Source1,2,2023-01-14 15:44:00,2023-01-14 17:35:30,42.96671,-85.6722,42.967231,-85.672216,0.036,Incident on MONROE AVE near LYON ST Drive with caution., Monroe Ave NW,Grand Rapids,Kent,MI,49503-2621,US,US/Eastern,KGRR,2023-01-14 15:53:00,31.0,23.0,61.0,29.25,10.0,WSW,9.0,0.0,Partly Cloudy,True,False,True,False,False,False,False,False,True,False,False,True,False,Day,Day,Day,Day
A-5819401,Source1,2,2021-11-10 18:21:00,2021-11-10 19:36:14,28.330924,-82.678113,28.330905,-82.677656,0.028,Incident on FL-52 near LA MADERA BLVD Expect delays., State Road 52,Hudson,Pasco,FL,34667-6729,US,US/Eastern,KBKV,2021-11-10 17:53:00,69.0,69.0,87.0,30.04,10.0,E,5.0,0.0,Cloudy,False,False,False,False,False,False,False,False,False,False,False,False,False,Night,Night,Day,Day
A-917941,Source2,2,2021-08-31 18:06:28,2021-08-31 18:36:05,41.850979,-71.40862299999998,,,0.0,Shoulder blocked due to accident on I-95 Southbound at Exits 24 25 25A-B Branch Ave.,I-95 N,Providence,Providence,RI,02904,US,US/Eastern,KSFZ,2021-08-31 17:56:00,75.0,75.0,64.0,29.28,10.0,W,6.0,0.0,Fair,False,False,False,False,False,False,False,False,False,False,False,False,False,Day,Day,Day,Day
A-7037968,Source1,2,2020-05-19 14:16:20,2020-05-19 15:06:18,39.1475,-84.53904,39.1475,-84.53904,0.0,At I-74/US-52/US-27/Exit 4 - Accident. Left lane blocked.,I-75 S,Cincinnati,Hamilton,OH,45223,US,US/Eastern,KLUK,2020-05-19 14:21:00,64.0,64.0,90.0,29.32,10.0,ENE,9.0,0.01,Light Rain,False,False,False,False,False,False,False,False,False,False,False,False,False,Day,Day,Day,Day
A-3359748,Source2,3,2017-08-06 17:03:27,2017-08-06 18:03:27,35.156223,-89.879974,,,0.0,Accident on I-40 at Exit 12 Sycamore View Rd.,I-40 W,Memphis,Shelby,TN,38122,US,US/Central,KMEM,2017-08-06 16:54:00,80.1,,81.0,29.87,10.0,South,12.7,,Mostly Cloudy,False,False,False,False,True,False,False,False,False,False,False,False,False,Day,Day,Day,Day
A-691227,Source2,3,2022-03-02 16:29:18,2022-03-02 17:13:58,37.239342,-81.10619399999999,,,0.0,Lane closed due to crash on I-77 Northbound at Exit 64 US-52 Scenic Hwy.,I-77,Bastian,Bland,VA,24314,US,US/Eastern,KBLF,2022-03-02 16:52:00,59.0,59.0,31.0,27.08,10.0,WNW,8.0,0.0,Fair,False,False,False,False,False,False,False,False,False,False,False,False,False,Day,Day,Day,Day
A-1351776,Source2,2,2020-10-21 21:00:31,2020-10-21 21:30:00,33.940735,-117.261536,,,0.0,Lane blocked due to accident on CA-60 Eastbound at Frederick St.,Frederick St,Moreno Valley,Riverside,CA,92553-5238,US,US/Pacific,KRIV,2020-10-21 20:58:00,62.0,62.0,82.0,28.23,10.0,CALM,0.0,0.0,Fair,False,False,False,False,False,False,False,False,False,False,False,False,False,Night,Night,Night,Night
A-4047219,Source1,2,2022-11-23 13:39:00,2022-11-23 19:55:30,38.971164,-77.179063,38.983608,-77.160827,1.3030000000000002,Stationary traffic on I-495 N from George Washington Memorial Pkwy/Exit 14 (Capital Beltway/I-495) to Cabin John Pkwy/Exit 40 (Capital Beltway/I-495) due to accident.,Capital Beltway N,Cabin John,Montgomery,MD,20818,US,US/Eastern,KDCA,2022-11-23 13:52:00,62.0,62.0,25.0,30.23,10.0,NNE,9.0,0.0,Fair,False,False,False,False,True,False,False,False,False,False,False,False,False,Day,Day,Day,Day
A-3721202,Source1,2,2022-12-30 20:32:56,2022-12-30 21:51:06,41.77234769,-87.90726542,41.75894769,-87.88713542,1.39,Incident on I-294 SB near JOLIET RD Right lane blocked. Expect delays.,Tri-State Tlwy,La Grange,Cook,IL,60525,US,US/Central,KMDW,2022-12-30 20:53:00,35.0,31.0,82.0,29.32,9.0,WNW,5.0,0.0,Mostly Cloudy,False,False,False,False,False,False,False,False,False,False,False,False,False,Night,Night,Night,Night
A-579770,Source2,3,2022-06-29 16:47:09,2022-06-29 17:35:25,36.649361,-82.08602900000002,,,0.0,Left lane closed due to crash on I-81 Southbound after Exit 10 VA-310.,US-58,Bristol,Washington,VA,24202,US,US/Eastern,KVJI,2022-06-29 16:55:00,87.0,87.0,46.0,28.05,10.0,CALM,0.0,0.0,Fair,False,False,False,False,True,False,False,False,False,False,False,False,False,Day,Day,Day,Day
A-5459919,Source1,2,2023-02-23 14:49:00,2023-02-23 17:07:17,36.98759,-121.969538,36.989542,-121.969931,0.1369999999999999,Accident on N Rodeo Gulch Rd from Soquel Dr / S Rodeo Gulch Rd to Whispering Palms Dr., Soquel Dr,Soquel,Santa Cruz,CA,95073,US,US/Pacific,KWVI,2023-02-23 14:53:00,49.0,45.0,64.0,29.7,10.0,SW,10.0,0.0,Mostly Cloudy,False,False,True,False,False,False,False,False,False,False,False,True,False,Day,Day,Day,Day
A-6721378,Source1,2,2020-12-26 03:30:00,2020-12-26 08:59:54,37.187537,-120.971608,37.187582,-120.994481,1.259,Incident on COTTONWOOD RD near S HUNT RD Drive with caution., Cottonwood Rd,Gustine,Merced,CA,95322,US,US/Pacific,KMER,2020-12-26 06:45:00,52.0,52.0,100.0,29.98,10.0,CALM,0.0,0.0,Cloudy,False,False,True,False,False,False,True,False,False,False,False,False,False,Night,Night,Night,Night
A-4841569,Source1,2,2022-02-25 16:46:21,2022-02-25 17:46:21,42.387796640194,-122.38174080790336,42.390776640194,-122.41161080790336,1.538,A crash has occurred use caution.,Lake of the Woods Hwy,Butte Falls,Jackson,OR,97522,US,US/Pacific,KMFR,2022-02-25 16:53:00,56.0,56.0,28.0,28.79,10.0,N,3.0,0.0,Fair,False,False,False,False,False,False,False,False,False,False,False,False,False,Day,Day,Day,Day
A-4302284,Source1,2,2023-01-06 11:19:00.000000000,2023-01-06 13:29:40.000000000,40.709355,-122.335056,40.708597,-122.335523,0.058,Accident on I-5 S from Fawndale Rd/Wonderland Blvd (I-5) to Old Oregon Trl/Exit 687 (I-5).,I-5 S,Redding,Shasta,CA,96003,US,US/Pacific,KRDD,2023-01-06 10:53:00,50.0,50.0,86.0,29.71,10.0,S,12.0,0.04,Cloudy,False,False,False,False,False,False,False,False,False,False,False,False,False,Day,Day,Day,Day
A-3270441,Source2,2,2017-10-26 12:33:05,2017-10-26 13:02:59,32.155109,-111.106033,,,0.0,Accident on Camino Verde at Nebraska St.,W Nebraska St,Tucson,Pima,AZ,85757,US,US/Mountain,KRYN,2017-10-26 12:45:00,89.6,,13.0,29.94,10.0,NW,8.1,,Clear,False,False,False,False,False,False,False,False,False,True,False,False,False,Day,Day,Day,Day
A-6902354,Source1,2,2020-11-24 17:28:06,2020-11-24 21:10:07,46.885085,-114.039245,46.88512100000001,-114.039414,0.008,Incident on MULLAN RD near RESERVE ST Drive with caution.,N Reserve St,Missoula,Missoula,MT,59808,US,US/Mountain,KMSO,2020-11-24 17:53:00,32.0,32.0,73.0,26.64,10.0,CALM,0.0,0.0,Fair,False,False,True,False,False,False,False,False,False,False,False,True,False,Night,Night,Day,Day
A-562328,Source2,3,2022-07-19 08:54:42,2022-07-19 10:24:14,41.649418,-72.672035,,,3.1800000667572017,Lane blocked due to crash on I-91 Northbound from Exit 22 to Exit 23 West St.,I-91,Rocky Hill,Capitol,CT,06067,US,US/Eastern,KHFD,2022-07-19 08:53:00,79.0,79.0,69.0,29.71,10.0,VAR,6.0,0.0,Mostly Cloudy,False,False,False,False,False,False,False,False,False,False,False,False,False,Day,Day,Day,Day
A-2757150,Source2,3,2018-06-12 06:06:44,2018-06-12 06:36:23,33.412071000000005,-86.758507,,,0.0,Right hand shoulder blocked due to accident on I-459 Southbound at Exit 17 Acton Rd.,I-459 N,Birmingham,Jefferson,AL,35243,US,US/Central,KBHM,2018-06-12 05:53:00,69.1,,96.0,30.03,10.0,Calm,,,Partly Cloudy,False,False,False,False,False,False,False,False,False,False,False,False,False,Day,Day,Day,Day
A-821718,Source2,3,2021-11-12 16:58:22,2021-11-12 17:28:04,29.53054,-95.1325,,,0.0,Lane blocked due to accident on I-45 Gulf Fwy Southbound at Nasa Rd.,I-45 N,Webster,Harris,TX,77598,US,US/Central,KEFD,2021-11-12 16:50:00,73.0,73.0,50.0,30.06,10.0,NNW,12.0,,Fair,False,False,False,False,False,False,False,False,False,False,False,False,False,Day,Day,Day,Day
A-5074227,Source1,2,2022-10-01 12:38:00,2022-10-01 13:42:00,38.860254,-77.219886,38.881388,-77.221389,1.462,Stationary traffic on I-495 N from VA-650/Gallows Rd/Exit 7 (Capital Beltway/I-495) to I-66/Exit 9 (Capital Beltway/I-495) due to accident.,Capital Beltway N,Falls Church,Fairfax County,VA,22042,US,US/Eastern,KDCA,2022-10-01 12:41:00,60.0,60.0,93.0,29.87,6.0,NE,14.0,0.02,Light Rain,False,False,False,False,False,False,False,False,False,False,False,False,False,Day,Day,Day,Day
A-6878800,Source1,2,2020-09-14 02:20:00,2020-09-14 04:35:34,40.864838,-74.42056,40.865738,-74.42989,0.491,Crash on I-80 westbound West of Exit 43 - I-287 (Parsippany-Troy Hills Twp) right lane blocked,I-80 W,Parsippany,Morris,NJ,07054,US,US/Eastern,KMMU,2020-09-14 02:15:00,70.0,70.0,88.0,29.83,10.0,CALM,0.0,0.0,Mostly Cloudy,False,False,False,False,False,False,False,False,False,False,False,False,False,Night,Night,Night,Night
A-7348608,Source1,2,2019-10-20 13:13:00,2019-10-20 14:05:06,32.88428,-117.22787,32.89074,-117.22729,0.448,At Genesee Ave/Exit 29 - Accident.,I-5 N,La Jolla,San Diego,CA,92093,US,US/Pacific,KMYF,2019-10-20 12:53:00,80.0,80.0,39.0,29.45,10.0,WNW,8.0,0.0,Fair,False,False,False,False,False,False,False,False,False,False,False,False,False,Day,Day,Day,Day
A-3253940,Source2,2,2017-10-18 06:36:52,2017-10-18 07:21:39,33.884083000000004,-117.637878,,,0.0,Gore point obstructed due to accident on CA-91 Eastbound at Exit 45 CA-71.,Riverside Fwy E,Corona,Riverside,CA,92880,US,US/Pacific,KAJO,2017-10-18 06:56:00,55.0,,74.0,29.94,10.0,Calm,,,Clear,False,False,False,False,False,False,False,False,False,False,False,False,False,Night,Day,Day,Day
A-1273647,Source2,2,2020-11-10 11:14:49,2020-11-10 12:51:07,32.919033,-96.766014,,,0.0,Three lanes blocked due to accident on US-75 Northbound at I-635.,US-75 N,Dallas,Dallas,TX,75243,US,US/Central,KADS,2020-11-10 10:47:00,73.0,73.0,47.0,29.24,10.0,NW,9.0,0.0,Mostly Cloudy,False,False,False,False,False,False,False,False,False,False,False,False,False,Day,Day,Day,Day
A-3438321,Source1,2,2016-08-08 14:17:47,2016-08-08 20:17:47,41.648481,-93.773213,41.65068,-93.775,0.178,At IA-141/Exit 127 - Accident.,NW 114th St,Urbandale,Polk,IA,50322,US,US/Central,KDSM,2016-08-08 13:54:00,80.1,,64.0,29.96,10.0,SSE,10.4,,Overcast,False,False,False,False,False,False,False,False,False,False,False,False,False,Day,Day,Day,Day
A-3575266,Source1,3,2017-02-28 17:50:56,2017-02-28 23:50:56,41.8079,-88.07599,41.807933,-88.077014,0.053,At IL-53 - Accident.,Warrenville Rd,Lisle,DuPage,IL,60532,US,US/Central,KDPA,2017-02-28 17:52:00,59.0,,83.0,29.53,6.0,South,17.3,0.09,Light Rain,False,False,True,False,False,False,False,False,False,False,False,True,False,Night,Day,Day,Day
A-6764371,Source1,2,2020-11-24 00:01:00,2020-11-24 07:34:05,34.003793,-118.277515,34.003806,-118.27618,0.076,OCCD EB SR91 JWO GREEN RIVER RD. 1039 LAPD OP #296 - NEG PRIOR CALLS FOR SVC AT THIS ADDRESS, W Vernon Ave,Los Angeles,Los Angeles,CA,90037-2715,US,US/Pacific,KCQT,2020-11-24 00:02:00,54.0,54.0,80.0,29.77,6.0,CALM,0.0,0.0,Haze,False,False,False,False,False,False,False,False,False,False,False,False,False,Night,Night,Night,Night
A-922294,Source2,2,2021-08-27 10:00:46,2021-08-27 10:29:38,44.948635,-92.959137,,,0.0,Accident on I-94 Eastbound at Exit 249.,I-94 E,Saint Paul,Washington,MN,55125,US,US/Central,KSTP,2021-08-27 09:53:00,70.0,70.0,93.0,29.17,10.0,SE,7.0,0.0,Cloudy,False,False,False,False,False,False,False,False,False,False,False,False,False,Day,Day,Day,Day
A-6838986,Source1,2,2020-12-16 08:52:00,2020-12-16 11:07:29,30.507696000000006,-87.326374,30.508691,-87.32659,0.07,Incident on JUNO CIR near MOSSY CRK Drive with caution., Juno Cir,Pensacola,Escambia,FL,32526-8421,US,US/Central,KPNS,2020-12-16 08:53:00,55.0,55.0,96.0,29.72,6.0,NNE,8.0,0.0,Cloudy,False,False,False,False,False,False,False,False,False,False,False,False,False,Day,Day,Day,Day
A-6206062,Source1,2,2021-09-28 19:40:00,2021-09-28 19:55:00,36.053452,-86.672874,36.04656,-86.661262,0.805,Slow traffic on I-24 E from Haywood Ln/Exit 57 (I-24) to TN-254/Bell Rd/Exit 59 (I-24) due to accident.,Blue Hole Rd,Antioch,Davidson,TN,37013,US,US/Central,KBNA,2021-09-28 19:53:00,75.0,75.0,64.0,29.34,10.0,CALM,0.0,0.0,Fair,False,False,False,False,False,False,False,False,False,False,False,False,False,Night,Night,Night,Day
A-5061653,Source1,2,2023-01-25 05:50:38,2023-01-25 07:05:39,37.712126,-89.894184,37.688395,-89.874825,1.952,Incident on I-55 near MO-51 Drive with caution.,I-55 S,Perryville,Perry,MO,63775,US,US/Central,KSAR,2023-01-25 05:55:00,32.0,27.0,100.0,29.09,4.0,N,5.0,0.0,Light Snow,False,False,False,False,True,False,False,False,False,False,False,False,False,Night,Night,Night,Day
A-1905699,Source2,2,2019-09-11 09:42:59,2019-09-11 10:42:44,34.501141,-82.251427,,,0.0,Accident on US-76 near Boyce Page Rd.,W Main St,Honea Path,Laurens,SC,29654-7189,US,US/Eastern,KAND,2019-09-11 09:56:00,81.0,81.0,69.0,29.46,10.0,CALM,0.0,0.0,Fair,False,False,False,False,False,False,False,False,False,False,False,False,False,Day,Day,Day,Day
A-5438044,Source1,2,2023-01-24 07:28:00,2023-01-24 09:07:38,27.713609,-82.679349,27.755505,-82.676773,2.899,Stationary traffic on I-275 N from Pinellas Point Dr/Exit 3 (I-275) to 31st St/Exit 7 (I-275) due to accident.,I-275 N,Saint Petersburg,Pinellas,FL,33712,US,US/Eastern,KSPG,2023-01-24 07:53:00,56.0,56.0,77.0,30.2,10.0,NE,16.0,0.0,Fair,False,False,False,False,False,False,False,False,False,False,False,False,False,Day,Day,Day,Day
A-2985852,Source2,2,2018-02-02 06:44:22,2018-02-02 07:28:59,35.730362,-81.364487,,,0.0,Accident on US-321 Southbound at Main Avenue Dr.,US Highway 321 SW,Hickory,Catawba,NC,28602-2424,US,US/Eastern,KHKY,2018-02-02 06:53:00,36.0,29.0,55.0,30.11,10.0,NW,9.2,,Clear,False,False,False,False,False,False,False,False,False,False,False,False,False,Night,Night,Day,Day
A-4523012,Source1,2,2023-01-23 11:47:00.000000000,2023-01-23 18:59:30.000000000,33.928495,-118.28969,33.918744000000004,-118.196342,5.394,Stationary traffic on I-105 E - Glenn Anderson Fwy E from Crenshaw Blvd (I-105) to I-710/Garfield Ave (I-105) due to accident.,Glenn Anderson Fwy E,Los Angeles,Los Angeles,CA,90044,US,US/Pacific,KHHR,2023-01-23 11:53:00,68.0,68.0,14.0,29.93,10.0,NE,3.0,0.0,Fair,False,False,False,False,True,False,False,False,False,False,False,False,False,Day,Day,Day,Day
A-3212023,Source2,3,2017-11-28 07:54:17,2017-11-28 08:25:00,39.652641,-104.91803,,,0.0,Accident on I-25 Northbound at Exit 201 US-285 Hampden Ave.,US-87 N,Denver,Denver,CO,80237,US,US/Mountain,KAPA,2017-11-28 07:53:00,36.0,,67.0,30.17,10.0,Calm,,,Overcast,False,False,False,False,False,False,False,False,False,False,False,False,False,Day,Day,Day,Day
A-6207778,Source1,2,2021-12-17 07:57:00,2021-12-17 09:15:22,40.260619,-121.32791,40.260509000000006,-121.32905900000002,0.061,Incident on CA-36 WB near HOUSE 150 Drive with caution.,State Highway 36 E,Chester,Plumas,CA,96020,US,US/Pacific,KCIC,2021-12-17 07:47:00,32.0,26.0,100.0,30.03,80.0,VAR,6.0,0.0,Patches of Fog,False,False,False,False,False,False,False,False,False,False,False,False,False,Day,Day,Day,Day
A-4080036,Source1,2,2022-05-20 13:09:30,2022-05-20 13:23:30,39.536568,-119.807728,39.536496,-119.79566,0.643,Slow traffic on I-80 E from Virginia St/Exit 13 (I-80) to US-395/Exit 15 (I-80) due to accident.,Valley Rd,Reno,Washoe,NV,89512,US,US/Pacific,KRNO,2022-05-20 12:55:00,56.0,56.0,15.0,25.52,10.0,NE,14.0,0.0,Fair,False,False,False,False,True,False,False,False,False,False,False,False,False,Day,Day,Day,Day
A-2418906,Source2,2,2018-12-28 04:23:54,2018-12-28 04:52:20,26.54697,-81.788338,,,0.0,Accident on Jetport Commerce Pkwy at Daniels Pkwy.,Jetport Commerce Pkwy,Fort Myers,Lee,FL,33913-7871,US,US/Eastern,KRSW,2018-12-28 04:53:00,68.0,,96.0,30.07,9.0,East,3.5,,Partly Cloudy,False,False,True,False,False,False,False,False,False,False,False,False,False,Night,Night,Night,Night
A-23431,Source2,2,2016-10-06 15:20:01,2016-10-06 15:49:22,37.588497,-122.246201,,,0.0,Left lane blocked due to accident on CA-92 Westbound in Redwood City.,CA-92 E,San Mateo,San Mateo,CA,94404,US,US/Pacific,KSQL,2016-10-06 15:50:00,75.2,,31.0,30.01,10.0,NNW,9.2,,Scattered Clouds,False,False,False,False,False,False,False,False,False,False,False,False,False,Day,Day,Day,Day
A-3407996,Source2,2,2017-08-29 14:47:46,2017-08-29 15:46:06,35.442863,-80.87487,,,0.0,Accident on NC-73 Sam Furr Rd at Northcross Dr.,Sam Furr Rd,Huntersville,Mecklenburg,NC,28078,US,US/Eastern,KJQF,2017-08-29 14:50:00,71.6,,69.0,30.03,10.0,North,9.2,,Overcast,False,False,True,False,False,False,False,False,False,False,False,True,False,Day,Day,Day,Day
A-4566219,Source1,2,2022-04-26 19:27:30,2022-04-26 21:33:59,25.572286,-80.377155,25.571009,-80.377101,0.088,Slow traffic on US-1 S - FL-5 from SW 114th Ct to SW 213th St due to accident., SW 117th Ave,Miami,Miami-Dade,FL,33177-5427,US,US/Eastern,KTMB,2022-04-26 19:53:00,75.0,75.0,66.0,30.06,10.0,E,13.0,0.0,Fair,False,False,False,False,False,False,False,False,False,False,False,True,False,Day,Day,Day,Day
A-1279525,Source2,3,2020-11-05 18:41:14,2020-11-05 19:10:47,40.768085,-73.705917,,,0.0,Left lane blocked due to accident on I-495 Eastbound after Exit 33 Service Rd.,Jeffrey Ln,Great Neck,Nassau,NY,11020-1607,US,US/Eastern,KLGA,2020-11-05 18:51:00,60.0,60.0,78.0,30.32,10.0,SSW,6.0,0.0,Partly Cloudy,False,False,False,False,False,False,False,False,False,False,False,False,False,Night,Night,Night,Night
A-7046278,Source1,3,2020-05-22 19:22:59,2020-05-22 20:22:59,35.62364,-97.54953,35.62364,-97.54953,0.0,At N Pennsylvania Ave - Serious accident.,N Pennsylvania Ave,Edmond,Oklahoma,OK,73013,US,US/Central,KPWA,2020-05-22 18:53:00,85.0,85.0,48.0,28.41,10.0,CALM,0.0,0.0,Fair,False,False,False,False,False,False,False,False,False,False,False,True,False,Day,Day,Day,Day
A-4285342,Source1,2,2023-01-04 14:29:02.000000000,2023-01-04 15:46:30.000000000,39.644793,-86.074124,39.649581,-86.07413100000002,0.331,Incident on I-65 NB near COUNTY LINE RD Drive with caution.,I-65 N,Indianapolis,Marion,IN,46237,US,US/Eastern,KIND,2023-01-04 14:54:00,44.0,37.0,63.0,28.91,10.0,W,14.0,0.0,Mostly Cloudy,False,False,False,False,False,False,False,False,False,False,False,False,False,Day,Day,Day,Day
A-1949686,Source2,2,2019-07-03 08:02:20,2019-07-03 09:06:55,44.218197,-88.544151,,,0.0,Accident on WI-76 Northbound after US-10 Exit 284.,State Road 76,Neenah,Winnebago,WI,54956,US,US/Central,KATW,2019-07-03 07:45:00,72.0,72.0,94.0,28.95,10.0,CALM,0.0,0.0,Fair,False,False,False,False,False,False,False,False,False,False,False,False,False,Day,Day,Day,Day
A-5572285,Source1,2,2021-03-14 07:35:08,2021-03-14 08:52:38,32.544849,-80.744343,32.547253999999995,-80.744051,0.1669999999999999,Incident on TRASK PKY near MORGAN RD Drive with caution., Trask Pkwy,Seabrook,Beaufort,SC,29940-2908,US,US/Eastern,KNBC,2021-03-14 07:56:00,56.0,56.0,90.0,30.11,10.0,CALM,0.0,0.0,Fair,False,False,False,False,False,False,False,False,False,False,False,False,False,Day,Day,Day,Day
A-3878312,Source1,2,2022-08-21 19:49:00,2022-08-21 22:09:06,33.898136,-118.105141,33.883033000000005,-118.104266,1.045,Accident on San Gabriel River Fwy S - I-605 S from Rosecrans Ave (I-605) to CA-91/Artesia Fwy (I-605).,I-605,Norwalk,Los Angeles,CA,90650,US,US/Pacific,KFUL,2022-08-21 19:53:00,73.0,73.0,71.0,29.87,10.0,VAR,3.0,0.0,Fair,False,False,False,False,False,False,False,False,False,False,False,False,False,Night,Day,Day,Day
A-3029543,Source2,3,2018-02-23 04:01:54,2018-02-23 05:01:04,39.013489,-77.042068,,,0.0,Left hand shoulder blocked and 2 left lane blocked due to accident on I-495 Capital Beltway clockwise at MD-97 Georgia Ave.,Georgia Ave,Silver Spring,Montgomery,MD,20910,US,US/Eastern,KCGS,2018-02-23 03:58:00,39.2,37.0,93.0,30.6,4.0,NNE,3.5,,Overcast,False,False,False,False,True,False,False,False,False,False,False,False,False,Night,Night,Night,Night
A-2348809,Source2,2,2019-01-21 08:18:41,2019-01-21 08:48:33,38.21022,-85.665741,,,0.0,Accident on Heather Ln both ways at Goldsmith Ln.,Goldsmith Ln,Louisville,Jefferson,KY,40218-1019,US,US/Eastern,KLOU,2019-01-21 07:53:00,10.0,,73.0,30.56,10.0,Calm,,,Clear,False,False,False,False,False,False,False,False,False,False,False,False,False,Day,Day,Day,Day
A-5535750,Source1,2,2021-04-19 04:31:30.000000000,2021-04-19 14:24:00.000000000,32.643445,-96.779667,32.647938,-96.781282,0.324,Slow traffic on TX-342 from Cedardale Rd (N Dallas Ave/TX-342) to I-20/Lyndon B Johnson Fwy (S Lancaster Rd/TX-342) due to accident., S Lancaster Rd,Dallas,Dallas,TX,75241-6312,US,US/Central,KRBD,2021-04-19 04:53:00,44.0,42.0,73.0,29.33,10.0,SSW,5.0,0.0,Fair,False,False,False,False,False,False,False,False,False,False,False,False,False,Night,Night,Night,Night
A-6851907,Source1,2,2020-12-03 00:44:00,2020-12-03 04:51:30,43.059129,-77.523333,43.059033,-77.52209,0.063,Incident on BARKER RD near W BLOOMFIELD RD Expect delays., Barker Rd,Pittsford,Monroe,NY,14534-2931,US,US/Eastern,KROC,2020-12-03 00:50:00,37.0,28.0,75.0,29.44,10.0,WSW,17.0,0.0,Cloudy,False,False,True,False,False,False,False,False,False,False,False,False,False,Night,Night,Night,Night
A-4001676,Source1,2,2022-08-25 15:29:00,2022-08-25 18:14:00,34.998845,-79.21909000000002,34.999773,-79.213102,0.345,Incident on US-401 NB near DOC BROWN RD Drive with caution., Fayetteville Rd,Raeford,Hoke,NC,28376-6637,US,US/Eastern,KMEB,2022-08-25 15:52:00,80.0,80.0,79.0,29.84,4.0,WNW,6.0,0.01,Light Rain,False,False,False,False,False,False,False,False,False,False,False,False,False,Day,Day,Day,Day
A-7770178,Source1,2,2019-08-07 22:06:00,2019-08-07 23:03:00,40.7375,-111.55587,40.74287,-111.56093,0.456,At Homestead Rd/Exit 141 - Accident. Left lane closed.,I-80 W,Park City,Summit,UT,84098,US,US/Mountain,K36U,,,,,,,,,,,False,False,False,False,False,False,False,False,False,False,False,False,False,Night,Night,Night,Day
A-6584403,Source1,2,2020-11-11 18:36:00,2020-11-11 20:17:00,30.232016,-97.765992,30.233719,-97.769517,0.241,Incident on CARDINAL LN near S 1ST ST Drive with caution., Cardinal Ln,Austin,Travis,TX,78704-6938,US,US/Central,KATT,2020-11-11 18:51:00,73.0,73.0,51.0,29.24,10.0,NNE,3.0,0.0,Fair,False,False,False,False,False,False,False,False,False,False,False,False,False,Night,Night,Night,Day
A-4569685,Source1,2,2022-04-14 18:09:01,2022-04-14 18:29:01,32.676218,-96.857926,32.671169,-96.862462,0.4370000000000001,Stationary traffic from S Hampton Rd to W Red Bird Ln due to accident., Marvin D Love Fwy,Dallas,Dallas,TX,75237-2301,US,US/Central,KRBD,2022-04-14 17:53:00,74.0,74.0,27.0,29.21,10.0,ESE,14.0,0.0,Fair,False,False,False,False,False,False,False,False,False,False,False,False,False,Day,Day,Day,Day
A-1302223,Source2,2,2020-09-17 10:20:28,2020-09-17 12:42:58,35.76792899999999,-78.574097,,,0.0,Accident on I-440 Cliff Benson Beltline Northbound at Poole Rd.,Poole Rd,Raleigh,Wake,NC,27610,US,US/Eastern,KRDU,2020-09-17 10:22:00,70.0,70.0,93.0,29.56,4.0,E,8.0,0.02,Light Rain,False,False,False,False,False,False,False,False,False,False,False,False,False,Day,Day,Day,Day
A-211288,Source2,2,2016-10-12 06:44:02,2016-10-12 07:13:49,42.523651,-70.996178,,,0.01,Accident on US-1 Newbury St Southbound before Lynnfield Tunnel.,Newbury St,Peabody,Essex,MA,01960-3820,US,US/Eastern,KBVY,2016-10-12 06:53:00,41.0,,96.0,30.38,10.0,Calm,,,Clear,False,False,False,False,False,False,False,False,False,False,False,False,False,Night,Day,Day,Day
A-173846,Source2,2,2016-10-03 18:27:58,2016-10-03 19:27:30,42.46616,-88.01715899999998,,,0.0,Slow traffic due to accident on IL-173 both ways at US-45.,N US Highway 45,Antioch,Lake,IL,60002,US,US/Central,KENW,2016-10-03 18:53:00,55.9,,90.0,30.08,10.0,ESE,4.6,,Clear,False,False,False,False,False,False,False,False,False,False,False,True,False,Day,Day,Day,Day
A-7472482,Source1,2,2019-01-30 13:39:33,2019-01-30 14:09:14,36.74061,-121.65862,36.74645,-121.6615,0.434,At Espinosa Rd/Russell Rd - Accident. Right lane blocked.,El Camino Real N,Salinas,Monterey,CA,93907,US,US/Pacific,KSNS,2019-01-30 13:53:00,61.0,,64.0,29.92,10.0,WNW,10.4,,Clear,False,False,False,False,False,False,False,False,False,False,False,False,False,Day,Day,Day,Day
A-652658,Source2,2,2022-04-12 18:36:11,2022-04-12 19:05:52,35.46244,-80.737648,,,0.0,Crash on Odell School Rd both ways at Cherry Ln.,Cherry Ln,Concord,Cabarrus,NC,28027,US,US/Eastern,KJQF,2022-04-12 18:50:00,73.0,73.0,53.0,29.37,10.0,SE,3.0,0.0,Cloudy,False,False,False,False,False,False,False,False,False,False,False,False,False,Day,Day,Day,Day
A-3643813,Source1,2,2017-07-16 03:32:57,2017-07-16 09:32:57,41.7009,-70.119828,41.7009,-70.119828,0.0,At RT-134/Exit 9 - Accident.,Depot St,Harwich,Barnstable,MA,02645,US,US/Eastern,KCQX,2017-07-16 03:24:00,69.1,,100.0,29.89,7.0,SW,4.6,,Mostly Cloudy,False,False,False,False,False,False,False,False,False,False,False,False,False,Night,Night,Night,Day
A-1264303,Source2,2,2020-11-16 07:10:22,2020-11-16 08:09:12,33.8778,-80.696442,,,0.0,Accident on Chalk St at Main St.,Main St,Eastover,Richland,SC,29044-9643,US,US/Eastern,KMMT,2020-11-16 06:56:00,44.0,44.0,100.0,29.88,10.0,CALM,0.0,0.0,Fair,False,False,True,False,False,False,True,False,False,False,False,False,False,Day,Day,Day,Day
A-5427994,Source1,2,2022-01-31 17:12:00.000000000,2022-01-31 23:44:52.000000000,34.430326223209235,-117.37736105862912,34.46742622320924,-117.34834105862912,3.05,Incident on I-15 NB near MAIN ST Drive with caution.,I-15,Hesperia,San Bernardino,CA,92345,US,US/Pacific,KVCV,2022-01-31 18:35:00,54.0,54.0,19.0,27.03,10.0,WSW,5.0,0.0,Fair,False,False,False,False,True,False,False,False,False,False,False,False,False,Day,Day,Day,Day
A-1662444,Source3,2,2020-02-21 09:13:17,2020-02-21 09:57:57,33.901825,-117.46671299999998,,,0.0,HOV lane blocked and right hand shoulder blocked due to accident on CA-91 Westbound after Exit 56 Tyler St.,CA-91 W,Riverside,Riverside,CA,92505,US,US/Pacific,KRAL,2020-02-21 08:53:00,66.0,66.0,27.0,29.18,10.0,CALM,0.0,0.0,Fair,False,False,False,False,False,False,False,False,False,False,False,False,False,Day,Day,Day,Day
A-389267,Source2,2,2017-03-08 09:09:36,2017-03-08 10:09:36,30.315893,-97.662956,,,0.01,Accident on US-183 Ed Bluestein Blvd Southbound at Ed Bluestein Blvd.,Ed Bluestein Blvd,Austin,Travis,TX,78723,US,US/Central,KATT,2017-03-08 08:51:00,61.0,,52.0,30.31,10.0,Variable,4.6,,Overcast,False,False,False,False,False,False,False,False,False,False,False,False,False,Day,Day,Day,Day
A-7016415,Source1,2,2020-05-08 17:52:23,2020-05-08 18:07:23,40.25772,-75.65619000000002,40.24602,-75.6605,0.84,At W High St - Accident., Manatawny St,Pottstown,Montgomery,PA,19464-5140,US,US/Eastern,KPTW,2020-05-08 17:54:00,44.0,44.0,96.0,29.33,3.0,CALM,0.0,0.05,Light Rain,False,False,False,False,False,False,False,False,False,False,False,False,False,Day,Day,Day,Day
A-4886964,Source1,2,2022-11-20 14:09:00,2022-11-20 15:26:58,33.967172999999995,-118.229834,33.967329,-118.230226,0.025,Incident on BROADWAY near SANTA FE AVE Drive with caution., Broadway,Huntington Park,Los Angeles,CA,90255-6341,US,US/Pacific,KCQT,2022-11-20 13:47:00,79.0,79.0,13.0,29.89,10.0,CALM,0.0,0.0,Fair,False,False,False,False,False,False,False,False,False,False,False,False,False,Day,Day,Day,Day
A-6534956,Source1,2,2021-01-02 10:30:03,2021-01-02 11:45:03,32.907067,-96.728514,32.912427,-96.736784,0.606,Incident on LBJ FWY WB near ABRAMS RD Drive with caution.,I-635 W,Dallas,Dallas,TX,75243,US,US/Central,KADS,2021-01-02 10:47:00,45.0,41.0,57.0,29.51,13.0,W,7.0,0.0,Mostly Cloudy,False,False,False,False,True,False,False,False,False,False,False,False,False,Day,Day,Day,Day
A-6924603,Source1,2,2020-11-23 22:42:40,2020-11-24 00:39:40,29.983375,-95.286175,29.983373,-95.286451,0.017,Incident on WILL CLAYTON PKY near HUMBLE PKY Drive with caution.,Humble Pkwy,Humble,Harris,TX,77338,US,US/Central,KIAH,2020-11-23 22:53:00,54.0,54.0,97.0,30.0,8.0,CALM,0.0,0.0,Shallow Fog,False,False,False,False,False,False,False,False,False,False,False,True,False,Night,Night,Night,Night
A-5243418,Source1,4,2022-04-23 22:29:00,2022-04-24 00:25:53,41.709579,-75.67062299999998,41.645663,-75.65845999999998,4.461,Incident on I-81 SB near PA-92 Road closed. Take alternate route.,I-81 S,Kingsley,Susquehanna,PA,18826,US,US/Eastern,KAVP,2022-04-23 22:54:00,57.0,57.0,42.0,29.17,10.0,CALM,0.0,0.0,Fair,False,False,False,False,False,False,False,False,False,False,False,False,False,Night,Night,Night,Night
A-7360798,Source1,2,2019-10-29 05:25:00,2019-10-29 06:15:57,33.93918,-117.172352,33.93918,-117.172352,0.0,At Redlands Blvd - Accident.,CA-60 E,Moreno Valley,Riverside,CA,92555,US,US/Pacific,KRIV,2019-10-29 04:58:00,36.0,36.0,35.0,28.29,10.0,CALM,0.0,0.0,Fair,False,False,False,False,False,False,False,False,False,False,False,False,False,Night,Night,Night,Night
A-5669146,Source1,2,2021-12-22 18:48:30,2021-12-22 19:09:00,37.649617,-77.602522,37.651447,-77.61162,0.514,Slow traffic on US-250 W from I-64 (Glen Allen) (W Broad St/US-250) to Lauderdale Dr (W Broad St/US-250) due to accident., W Broad St,Glen Allen,Henrico,VA,23060-5815,US,US/Eastern,KOFP,2021-12-22 18:54:00,45.0,45.0,34.0,29.69,10.0,VAR,3.0,0.0,Fair,False,False,False,False,False,False,False,False,False,False,False,False,False,Night,Night,Night,Night
A-3436107,Source1,3,2016-10-05 16:24:58,2016-10-05 22:24:58,29.72523,-95.46022,29.73533,-95.4592,0.701,At US-59/Exit 8 - Accident.,I-610 N,Houston,Harris,TX,77081,US,US/Central,KMCJ,2016-10-05 16:15:00,84.2,,70.0,29.83,10.0,East,8.1,,Clear,False,False,False,False,False,False,False,False,False,False,False,False,False,Day,Day,Day,Day
A-5907165,Source1,2,2021-04-15 07:32:30,2021-04-15 09:15:03,35.536497,-82.604042,35.510477,-82.57883000000002,2.29,Slow traffic on US-74 E - I-26 E from I-40/Exit 31A (I-26) to NC-146/Exit 37 (I-26) due to accident.,I-26 E,Asheville,Buncombe,NC,28806,US,US/Eastern,KAVL,2021-04-15 07:54:00,52.0,52.0,69.0,27.65,10.0,N,10.0,0.0,Mostly Cloudy,False,False,False,False,False,False,False,False,False,False,False,False,False,Day,Day,Day,Day
A-4901208,Source1,2,2022-08-02 16:55:00.000000000,2022-08-02 19:35:52.000000000,34.024374,-117.746929,34.024636,-117.748824,0.11,Accident from exit [29B] to S Garey Ave., Citron Pl,Pomona,Los Angeles,CA,91766-5950,US,US/Pacific,KPOC,2022-08-02 17:47:00,86.0,86.0,31.0,28.9,10.0,W,12.0,,Fair,False,False,False,False,False,False,False,False,False,False,False,False,False,Day,Day,Day,Day
A-181598,Source2,2,2016-12-28 08:08:27,2016-12-28 08:38:09,42.963123,-85.673698,,,0.16,Accident on Monroe Ave between Campau Ave and Fulton St.,Fulton St W,Grand Rapids,Kent,MI,49503,US,US/Eastern,KGRR,2016-12-28 07:53:00,24.1,16.0,81.0,30.14,10.0,SSE,6.9,,Mostly Cloudy,False,False,True,False,False,False,False,False,False,False,False,True,False,Night,Day,Day,Day
A-6956384,Source1,2,2020-11-06 05:59:41,2020-11-06 07:56:41,29.725431,-95.476394,29.725431,-95.475984,0.025,Incident on SOUTHWEST FWY near CHIMNEY ROCK RD Drive with caution.,Southwest Fwy,Houston,Harris,TX,77056,US,US/Central,KMCJ,2020-11-06 05:53:00,60.0,60.0,83.0,30.07,10.0,NNE,3.0,0.0,Fair,False,False,False,True,False,False,False,False,False,False,False,True,False,Night,Night,Day,Day
A-2913171,Source2,3,2018-04-27 13:46:21,2018-04-27 14:14:36,35.017399,-85.294159,,,0.0,Very slow traffic right lane blocked and right hand shoulder closed due to accident on I-24 Eastbound at Exits 180A 180B Rossville Blvd.,US-27 S,Chattanooga,Hamilton,TN,37408,US,US/Eastern,KCHA,2018-04-27 13:53:00,70.0,,31.0,29.88,10.0,Variable,6.9,,Scattered Clouds,False,False,False,False,False,False,False,False,False,False,False,False,False,Day,Day,Day,Day
A-6132404,Source1,2,2021-07-10 20:18:43,2021-07-10 21:38:17,27.853738,-82.63884300000002,27.853448,-82.63884,0.02,Incident on 4TH ST N near HOUSE 8840 Drive with caution., 4th St N,Saint Petersburg,Pinellas,FL,33702-3126,US,US/Eastern,KSPG,2021-07-10 19:53:00,88.0,88.0,59.0,30.06,10.0,N,9.0,0.0,Fair,False,False,False,False,False,False,False,False,True,False,False,False,False,Day,Day,Day,Day
A-6116481,Source1,2,2021-10-14 05:19:30,2021-10-14 06:08:00,39.335278,-77.377608,39.304076,-77.340192,2.9410000000000003,Slow traffic on I-270 S - Dwight D Eisenhower Hwy S from MD-85/Exit 31 (I-270) to MD-109/Exit 22 (I-270) due to accident.,Dwight D Eisenhower Hwy S,Frederick,Frederick,MD,21704,US,US/Eastern,KFDK,2021-10-14 05:15:00,63.0,63.0,94.0,29.68,0.25,W,3.0,0.0,Light Rain,False,False,False,False,False,False,False,False,False,False,False,False,False,Night,Night,Night,Night
A-4135044,Source1,2,2022-03-23 06:12:30,2022-03-23 08:17:47,39.225668,-76.717054,39.222207,-76.711892,0.365,I-95 NORTH PRIOR TO EXIT 47A I 195 I-195 E (NB),I-95 N,Halethorpe,Baltimore County,MD,21227,US,US/Eastern,KBWI,2022-03-23 05:54:00,49.0,42.0,35.0,29.96,10.0,ENE,20.0,0.0,Mostly Cloudy,False,False,False,False,False,False,False,False,False,False,False,False,False,Night,Night,Day,Day
A-6023074,Source1,2,2021-09-17 10:40:00,2021-09-17 12:29:03,29.77035,-90.815397,29.770648,-90.8154,0.021,Incident on LA-20 NB near PASTURE LN Right lane blocked. Expect delays., W Park Ave,Thibodaux,Terrebonne,LA,70301-7407,US,US/Central,K7R3,2021-09-17 10:56:00,86.0,86.0,74.0,29.99,10.0,CALM,0.0,0.0,Cloudy,False,False,False,False,False,False,False,False,False,False,False,False,False,Day,Day,Day,Day
A-2139051,Source2,2,2019-05-02 10:33:36,2019-05-02 11:34:18,36.152351,-86.769012,,,0.0,Accident on Lindsley Ave at 2nd Ave.,3rd Ave S,Nashville,Davidson,TN,37210-2015,US,US/Central,KBNA,2019-05-02 10:53:00,79.0,79.0,62.0,29.5,10.0,SSW,8.0,0.0,Mostly Cloudy,False,False,True,False,False,False,False,False,False,False,False,False,False,Day,Day,Day,Day
A-7634757,Source1,2,2018-01-18 13:38:29,2018-01-18 19:38:29,32.910713,-80.02770699999998,32.910713,-80.02770699999998,0.0,At Ashley Phosphate Rd/Exit 209 - Accident. Right lane blocked.,I-26 W,Charleston,Charleston,SC,29406,US,US/Eastern,KCHS,2018-01-18 13:56:00,45.0,39.7,22.0,30.32,10.0,NW,10.4,,Clear,False,False,False,False,False,False,False,False,False,False,False,False,False,Day,Day,Day,Day
A-3485687,Source1,4,2016-08-01 18:43:59,2016-08-02 00:43:59,42.66177,-88.93387,42.66414,-88.95145,0.908,Closed at CR-O (North) - Road closed due to accident., S Van Allen Rd,Janesville,Rock,WI,53546-9580,US,US/Central,KJVL,2016-08-01 18:45:00,82.4,,58.0,30.03,10.0,East,5.8,,Partly Cloudy,False,False,False,False,False,False,False,False,False,False,False,False,False,Day,Day,Day,Day
A-5753027,Source1,2,2021-06-04 16:51:51,2021-06-04 18:52:20,43.955924,-91.658064,43.914368,-91.597096,4.177,Incident on I-90 EB near MN-43 Drive with caution.,I-90 E,Winona,Winona,MN,55987,US,US/Central,KONA,2021-06-04 16:55:00,95.0,95.0,28.0,29.02,10.0,SW,7.0,0.0,Fair,False,False,False,False,False,False,False,False,False,False,False,False,False,Day,Day,Day,Day
A-6241884,Source1,2,2021-08-28 16:29:30,2021-08-28 16:50:00,38.992518,-76.986915,38.989102,-76.987773,0.24,Slow traffic on MD-650 from Piney Branch Rd (New Hampshire Ave/MD-650) to MD-193/University Blvd (New Hampshire Ave/MD-650) due to accident.,New Hampshire Ave,Silver Spring,Prince George's,MD,20903,US,US/Eastern,KCGS,2021-08-28 16:35:00,86.0,86.0,63.0,30.09,10.0,E,7.0,0.0,Partly Cloudy,False,False,False,False,False,False,False,False,False,False,False,False,False,Day,Day,Day,Day
A-3626046,Source1,2,2017-07-06 12:28:46,2017-07-06 18:28:46,44.95143,-93.02203,44.95156,-93.02907,0.344,At White Bear Ave/Exit 245 - Accident.,I-94 W,Saint Paul,Ramsey,MN,55119,US,US/Central,KSTP,2017-07-06 12:53:00,87.1,,49.0,29.89,10.0,WSW,10.4,,Clear,False,False,False,False,True,False,False,False,False,False,False,False,False,Day,Day,Day,Day
A-5132822,Source1,2,2022-06-29 14:58:30.000000000,2022-06-29 19:29:30.000000000,34.344301,-118.50464,34.372463,-118.499079,1.971,Slow traffic on CA-14 N - Antelope Valley Fwy N from I-5 Trk/Golden Hwy (CA-14) to Placerita Canyon Rd (CA-14) due to accident.,Antelope Valley Fwy N,Newhall,Los Angeles,CA,91321,US,US/Pacific,K3A6,2022-06-29 14:51:00,95.0,95.0,19.0,29.11,10.0,SSE,10.0,0.0,Fair,False,False,False,False,False,False,False,False,False,False,False,False,False,Day,Day,Day,Day
A-4856551,Source1,2,2022-04-29 17:40:43,2022-04-29 18:03:16,34.114745,-80.888674,34.116655,-80.88414,0.291,Slow traffic on US-1 N - US-1 S from N Brickyard Rd (US-1) to Clemson Rd (US-1) due to accident., Two Notch Rd,Columbia,Richland,SC,29223-4397,US,US/Eastern,KCUB,2022-04-29 17:53:00,78.0,78.0,35.0,29.9,10.0,SSE,5.0,0.0,Fair,False,False,False,False,False,False,False,False,False,False,False,False,False,Day,Day,Day,Day
A-747114,Source2,3,2022-01-14 16:10:26,2022-01-14 16:39:24,36.144241,-86.695099,,,0.0,Two lanes blocked due to accident on I-40 Westbound at TN-155 Briley Pkwy.,I-40,Nashville,Davidson,TN,37214,US,US/Central,KBNA,2022-01-14 15:53:00,52.0,52.0,45.0,29.39,10.0,N,5.0,0.0,Partly Cloudy,False,False,False,False,False,False,False,False,False,False,False,False,False,Day,Day,Day,Day
A-2266468,Source2,2,2019-02-05 02:26:28,2019-02-05 02:56:03,33.968304,-117.848915,,,0.0,Right hand shoulder blocked due to accident on CA-57 Northbound before Exit 14 Diamond Bar Blvd.,CA-57 N,Diamond Bar,Los Angeles,CA,91765,US,US/Pacific,KPOC,2019-02-05 06:47:00,44.6,,100.0,29.9,5.0,Calm,,,Light Rain,False,False,False,False,False,False,False,False,False,False,False,False,False,Night,Night,Night,Night
A-1649065,Source2,2,2020-02-14 12:21:17,2020-02-14 14:07:20,34.899978999999995,-82.315071,,,0.0,Accident on Brushy Creek Rd at Maywood Dr.,Brushy Creek Rd,Taylors,Greenville,SC,29687-3528,US,US/Eastern,KGSP,2020-02-14 11:53:00,51.0,51.0,31.0,29.27,,NNE,8.0,0.0,Fair,False,False,False,False,False,False,False,False,False,False,False,False,False,Day,Day,Day,Day
A-7350093,Source1,2,2019-10-21 15:26:00,2019-10-21 16:00:37,33.876717,-118.185972,33.876717,-118.185972,0.0,At Atlantic Ave - Accident.,Artesia Fwy E,Long Beach,Los Angeles,CA,90805,US,US/Pacific,KLGB,2019-10-21 15:53:00,93.0,93.0,11.0,29.89,10.0,WNW,13.0,0.0,Fair,False,False,False,False,False,False,False,False,False,False,False,True,False,Day,Day,Day,Day
A-2191438,Source2,2,2019-04-26 03:22:15,2019-04-26 04:06:39,37.903481,-122.070457,,,0.0,Gore point obstructed due to accident on CA-24 Eastbound at I-680.,I-680 S,Walnut Creek,Contra Costa,CA,94597,US,US/Pacific,KCCR,2019-04-26 02:53:00,55.0,55.0,74.0,29.87,10.0,SSW,9.0,0.0,Fair,False,False,False,False,False,False,False,False,False,False,False,False,False,Night,Night,Night,Night
A-5905962,Source1,2,2021-08-28 19:28:00.000000000,2021-08-28 19:55:00.000000000,36.094503,-86.62486899999998,36.090316,-86.626514,0.304,Stationary traffic from Couchville Pike (Bell Rd) to Nashboro Blvd/Smith Springs Rd (Bell Rd) due to accident., Bell Rd,Nashville,Davidson,TN,37217-5702,US,US/Central,KBNA,2021-08-28 19:53:00,79.0,79.0,74.0,29.49,10.0,ENE,3.0,0.0,Mostly Cloudy,False,False,False,False,False,False,False,False,False,False,False,False,False,Night,Day,Day,Day
A-1019937,Source2,2,2021-06-03 09:13:40,2021-06-03 10:30:00,37.552509,-122.308151,,,0.0,Slow lane blocked due to accident on CA-92 Westbound after Delaware St.,CA-92 W,San Mateo,San Mateo,CA,94402,US,US/Pacific,KSQL,2021-06-03 08:58:00,59.0,59.0,82.0,29.88,10.0,CALM,0.0,0.0,Partly Cloudy,False,False,False,False,False,False,False,False,False,False,False,False,False,Day,Day,Day,Day
A-1305559,Source2,3,2020-09-19 19:58:28,2020-09-19 21:09:37,27.581997,-82.582634,,,19.63999938964844,Two lanes blocked due to accident on I-275 Southbound between exit 16 and exit 5.,US Highway 19,Palmetto,Manatee,FL,34221,US,US/Eastern,KSRQ,2020-09-19 19:53:00,83.0,83.0,79.0,29.86,10.0,NNW,6.0,0.0,Fair,False,False,False,False,False,False,False,False,False,False,False,False,False,Night,Night,Day,Day
A-1284132,Source2,3,2020-11-03 22:21:46,2020-11-03 23:21:11,32.267025,-86.354919,,,0.0,Lane blocked due to accident on I-65 Southbound at Exit 164 US-31 Mobile Hwy.,Mobile Hwy,Montgomery,Montgomery,AL,36105,US,US/Central,KMXF,2020-11-03 21:56:00,46.0,46.0,,30.12,9.0,CALM,0.0,0.0,Fair,False,False,False,False,False,False,False,False,False,False,False,False,False,Night,Night,Night,Night
A-5617699,Source1,2,2021-11-04 06:17:30,2021-11-04 09:02:00,34.044825,-118.216047,34.028144,-118.213571,1.161,Slow traffic on Golden State Fwy S - I-10 W - I-5 S from Cesar E Chavez Ave (I-10/I-5) to US-101 (I-5) due to accident.,Golden State Fwy S,Los Angeles,Los Angeles,CA,90033,US,US/Pacific,KCQT,2021-11-04 05:52:00,59.0,59.0,87.0,29.82,3.0,CALM,0.0,0.0,Cloudy,False,False,False,False,False,False,False,False,False,False,False,False,False,Night,Night,Night,Day
A-874856,Source2,2,2021-10-05 15:16:57,2021-10-05 15:46:12,39.160149,-94.49691,,,0.0,Left hand shoulder blocked due to accident on I-435 Northbound after Exit 55 MO-210.,I-435 N,Kansas City,Clay,MO,64161,US,US/Central,KMKC,2021-10-05 14:54:00,73.0,73.0,61.0,29.32,10.0,NE,8.0,0.0,Cloudy,False,False,False,False,False,False,False,False,False,False,False,False,False,Day,Day,Day,Day
A-3368057,Source2,2,2017-08-10 12:44:59,2017-08-10 13:14:45,40.736889,-73.582993,,,0.0,Accident on Merrick Ave at Stewart Ave.,Park Blvd,East Meadow,Nassau,NY,11554,US,US/Eastern,KFRG,2017-08-10 12:53:00,81.0,,52.0,30.23,10.0,SSE,8.1,,Clear,False,False,True,False,False,False,False,False,False,False,False,True,False,Day,Day,Day,Day
A-6359872,Source1,2,2021-02-17 05:42:30,2021-02-17 13:12:17,27.300548,-82.49762700000002,27.298792,-82.496675,0.135,Stationary traffic from Pinecrest St to Miguel Ln due to accident., Beneva Rd,Sarasota,Sarasota,FL,34232-4613,US,US/Eastern,KSRQ,2021-02-17 05:53:00,59.0,59.0,93.0,30.04,6.0,N,6.0,0.02,Light Rain,False,False,False,False,False,False,False,False,False,False,False,False,False,Night,Night,Night,Night
A-5858166,Source1,2,2021-03-15 18:08:33,2021-03-15 19:44:34,45.251899,-92.921169,45.252245,-92.922287,0.059,Incident on MN-97 near JEWEL LN Drive with caution., Scandia Trl N,Forest Lake,Washington,MN,55025-8932,US,US/Central,KANE,2021-03-15 17:45:00,30.0,21.0,100.0,29.06,1.0,ENE,12.0,0.0,Light Snow,False,False,False,False,False,False,False,False,False,False,False,False,False,Day,Day,Day,Day
A-6785505,Source1,2,2020-09-15 00:02:30.000000000,2020-09-15 01:25:00.000000000,40.843166,-78.13492600000002,40.866426,-78.17279599999998,2.549,Stationary traffic on US-322 from Laurel Run Rd/N High St (US-322) to PA-504/15th St (Port Matilda Hwy/US-322) due to accident., Port Matilda Hwy,Philipsburg,Centre,PA,16866-3158,US,US/Eastern,KFIG,2020-09-15 00:54:00,45.0,42.0,86.0,28.72,10.0,N,6.0,0.0,Fair,False,False,False,False,False,False,False,False,False,False,False,False,False,Night,Night,Night,Night
A-6525519,Source1,2,2021-01-05 17:15:27,2021-01-05 19:37:22,25.887117,-80.12218399999998,25.887096,-80.122749,0.035,Incident on 96TH ST near COLLINS AVE Drive with caution.,96th St,Miami Beach,Miami-Dade,FL,33154,US,US/Eastern,KOPF,2021-01-05 16:53:00,66.0,66.0,36.0,30.02,10.0,N,8.0,0.0,Fair,False,False,False,False,False,False,False,False,False,False,False,False,False,Day,Day,Day,Day
A-3185055,Source2,2,2017-11-14 09:07:47,2017-11-14 09:37:34,29.701569,-95.371841,,,0.0,Accident on US-90 Alt Old Spanish Trl at Allegheny St.,Old Spanish Trl,Houston,Harris,TX,77021-2246,US,US/Central,KMCJ,2017-11-14 09:15:00,68.0,,73.0,30.2,9.0,East,6.9,,Mostly Cloudy,False,False,False,False,False,False,False,False,False,True,False,False,False,Day,Day,Day,Day
A-229976,Source2,2,2016-12-07 18:45:30,2016-12-07 19:15:07,40.382397,-75.390701,,,0.01,Accident on Upper Ridge Rd at Finland Rd.,Upper Ridge Rd,Green Lane,Montgomery,PA,18054-9437,US,US/Eastern,KUKT,2016-12-07 18:55:00,35.6,,87.0,30.04,10.0,Calm,,,Clear,False,False,False,False,False,False,False,False,False,False,False,False,False,Night,Night,Night,Night
A-6534097,Source1,2,2021-02-14 04:01:00,2021-02-15 04:50:30,33.62858176215349,-113.75318169539568,33.611761762153485,-113.63991169539568,6.62,Construction on I-10 EB near AVENUE 75 E Road closed. Take alternate route.,I-10,Roll,La Paz,AZ,85347,US,US/Mountain,KNYL,2021-02-14 03:57:00,56.0,56.0,47.0,29.51,10.0,WNW,16.0,0.0,Fair,False,False,False,False,False,False,False,False,False,False,False,False,False,Night,Night,Night,Night
A-782379,Source2,3,2021-12-13 10:55:05,2021-12-13 11:24:52,37.863491,-122.035759,,,0.0,#3 lane blocked due to accident on I-680 Northbound at Exit 43 Livorna Rd.,I-680 S,Alamo,Contra Costa,CA,94507,US,US/Pacific,KCCR,2021-12-13 10:53:00,54.0,54.0,93.0,29.7,3.0,SSW,10.0,0.13,Light Rain,False,False,False,False,False,False,False,False,False,False,False,False,False,Day,Day,Day,Day
A-7054006,Source1,2,2020-06-23 14:54:00,2020-06-23 15:47:43,34.072786,-118.466447,34.072786,-118.466447,0.0,At Sunset Blvd/Church Ln/Exit 57 - Accident.,W Sunset Blvd,Los Angeles,Los Angeles,CA,90049,US,US/Pacific,KSMO,2020-06-23 14:51:00,69.0,69.0,73.0,29.73,8.0,SW,8.0,0.0,Partly Cloudy,False,False,False,False,False,False,False,False,False,False,False,False,False,Day,Day,Day,Day
A-5973856,Source1,2,2021-12-14 13:57:00,2021-12-14 15:17:23,35.199543,-119.003201,35.204053,-119.003095,0.312,Incident on SOUTH UNION AVE near GRAY CT Drive with caution., S Union Ave,Bakersfield,Kern,CA,93307-8410,US,US/Pacific,KBFL,2021-12-14 13:54:00,45.0,45.0,86.0,29.32,4.0,SW,3.0,0.07,Light Rain,False,False,False,False,False,False,False,False,False,False,False,False,False,Day,Day,Day,Day
A-1479112,Source2,2,2020-05-22 20:14:15,2020-05-22 21:28:49,32.359821000000004,-86.245003,,,1.8600000143051147,Accident on entry ramp to I-85 Westbound from Perry Hill Rd Southbound.,I-85 S,Montgomery,Montgomery,AL,36109,US,US/Central,KMXF,2020-05-22 19:56:00,70.0,70.0,95.0,29.91,9.0,SSW,7.0,0.03,Light Rain,False,False,False,False,False,False,False,False,False,False,False,False,False,Night,Night,Day,Day
A-1443217,Source2,3,2020-07-01 18:47:23,2020-07-01 20:29:28,42.379162,-83.21620899999998,,,0.9700000286102296,Exit ramp from I-96 Westbound at Exit 183 to M-39 lane blocked due to accident.,Edward J Jeffries Fwy,Detroit,Wayne,MI,48227,US,US/Eastern,KDET,2020-07-01 18:53:00,84.0,84.0,43.0,29.27,10.0,E,12.0,0.0,Fair,False,False,False,False,False,False,False,False,False,False,False,False,False,Day,Day,Day,Day
A-4812773,Source1,2,2022-04-23 02:18:42,2022-04-23 04:24:10,37.894206,-104.829116,37.891811,-104.82911,0.165,Between Exit 71: Graneros Road and Exit 67: Apache (14 miles north of the Walsenburg area) at Mile Point 69. Crash expect delays. Slower speeds are advised.,I-25 S,Rye,Pueblo,CO,81069,US,US/Mountain,KVTP,2022-04-23 02:15:00,23.0,9.0,74.0,20.28,10.0,WSW,17.0,0.0,Partly Cloudy,False,False,False,False,False,False,False,False,False,False,False,False,False,Night,Night,Night,Night
A-7014784,Source1,2,2020-05-07 08:59:20,2020-05-07 09:44:20,36.16787,-86.82079,36.16787,-86.82079,0.0,At Jefferson St - Accident., 28th Ave N,Nashville,Davidson,TN,37208-2811,US,US/Central,KBNA,2020-05-07 08:53:00,58.0,58.0,53.0,29.55,10.0,WNW,7.0,0.0,Fair,False,False,False,False,False,False,False,False,False,False,False,False,False,Day,Day,Day,Day
A-1358645,Source2,2,2020-10-26 08:18:05,2020-10-26 09:33:01,39.599613,-119.837349,,,0.0,Accident on US-395 Northbound at Exit 73 Golden Valley Rd.,Martin Luther King Jr Memorial Fwy,Reno,Washoe,NV,89506,US,US/Pacific,KRTS,2020-10-26 08:15:00,23.0,15.0,36.0,25.24,10.0,E,7.0,0.0,Light Snow,False,False,False,False,False,False,False,False,False,False,False,False,False,Day,Day,Day,Day
A-7015498,Source1,2,2020-05-06 21:50:00,2020-05-06 23:03:33,35.358807,-118.932003,35.358807,-118.932003,0.0,At CA-58/Bakersfield Tehachapi Hwy - Accident., Fairfax Rd,Bakersfield,Kern,CA,93307-3013,US,US/Pacific,KBFL,2020-05-06 21:54:00,69.0,69.0,40.0,29.5,10.0,NE,6.0,0.0,Fair,False,False,False,False,False,False,False,False,False,False,False,False,False,Night,Night,Night,Night
A-5022528,Source1,2,2022-02-04 15:48:16.000000,2022-02-04 17:06:04.000000,40.076604,-75.127021,40.076939,-75.127301,0.027,Incident on CHURCH RD near ERVIEN LN Drive with caution., Church Rd,Elkins Park,Montgomery,PA,19027-2446,US,US/Eastern,KPNE,2022-02-04 15:54:00,37.0,29.0,,29.78,6.0,NW,12.0,0.1,N/A Precipitation,False,False,True,False,False,False,False,False,False,False,False,False,False,Day,Day,Day,Day
A-6465354,Source1,2,2021-02-22 10:08:41,2021-02-22 11:24:13,39.46047100000001,-77.512183,39.455407,-77.50629599999998,0.47,Incident on I-70 EB near HOLLOW RD Drive with caution.,I-70 E,Middletown,Frederick,MD,21769,US,US/Eastern,KFDK,2021-02-22 10:28:00,34.0,27.0,87.0,29.69,2.0,SSW,8.0,0.0,Snow,False,False,False,False,False,False,False,False,False,False,False,False,False,Day,Day,Day,Day
A-6499733,Source1,2,2021-01-22 23:22:06,2021-01-23 02:23:31,27.755024,-82.725167,27.754462,-82.724719,0.048,Incident on PELICAN CREEK CRSG near HOUSE 1324 Drive with caution., Pelican Creek Xing,Saint Petersburg,Pinellas,FL,33707-3949,US,US/Eastern,KSPG,2021-01-22 22:53:00,64.0,64.0,100.0,30.0,10.0,SW,6.0,0.0,Fair,False,False,False,False,False,False,False,False,False,False,False,False,False,Night,Night,Night,Night
A-4094647,Source1,2,2022-04-06 07:29:30.000000,2022-04-06 08:05:30.000000,39.534549,-119.81576,39.536479,-119.791423,1.304,Stationary traffic on I-80 E from Virginia St exit [13] to I-580 exit [15] due to accident.,N Virginia St,Reno,Washoe,NV,89501,US,US/Pacific,KRNO,2022-04-06 07:55:00,40.0,40.0,41.0,25.85,10.0,CALM,0.0,0.0,Fair,False,False,True,False,False,False,False,False,False,False,False,True,False,Day,Day,Day,Day
A-5485856,Source1,2,2021-12-10 07:51:00,2021-12-10 08:59:00,34.201121,-118.471025,34.201118,-118.466212,0.275,Slow traffic from I-405/San Diego Fwy (Sherman Way) to Sepulveda Blvd (Sherman Way) due to accident., Sherman Way,Van Nuys,Los Angeles,CA,91406-4113,US,US/Pacific,KVNY,2021-12-10 07:51:00,51.0,51.0,52.0,29.22,10.0,NE,5.0,0.0,Fair,False,False,False,False,False,False,False,False,False,False,False,False,False,Day,Day,Day,Day
A-4850820,Source1,2,2022-01-21 06:37:52,2022-01-21 07:52:53,39.145284,-77.66999,39.142822,-77.652263,0.965,Incident on HARRY BYRD HWY near HARRY BYRD HWY Drive with caution., Ivandale Rd,Hamilton,Loudoun,VA,20158-9424,US,US/Eastern,KJYO,2022-01-21 06:52:00,18.0,5.0,54.0,30.17,10.0,N,13.0,0.0,Mostly Cloudy,False,False,False,False,False,False,False,False,False,False,False,False,False,Night,Night,Day,Day
A-5240831,Source1,2,2022-08-20 14:58:32,2022-08-20 17:30:26,43.022284,-78.13764300000003,43.019548,-78.175972,1.945,Incident on I-90 WB near I-90 Drive with caution.,I-90 W,Batavia,Genesee,NY,14020,US,US/Eastern,KROC,2022-08-20 14:54:00,88.0,88.0,32.0,29.48,10.0,SSW,12.0,0.0,Partly Cloudy,False,False,False,False,False,False,False,False,False,False,False,False,False,Day,Day,Day,Day
A-4185842,Source1,2,2022-04-21 17:36:01,2022-04-21 19:46:07,28.447594,-81.47094200000002,28.450539000000006,-81.470844,0.204,Slow traffic from Pointe Plaza Ave (International Dr) to Carrier Dr (International Dr) due to accident., International Dr,Orlando,Orange,FL,32819-9325,US,US/Eastern,KMCO,2022-04-21 17:53:00,77.0,77.0,54.0,30.17,10.0,ENE,16.0,0.0,Mostly Cloudy,False,False,False,False,False,False,False,False,False,False,False,False,False,Day,Day,Day,Day
A-276494,Source2,2,2016-11-03 18:00:43,2016-11-03 18:30:32,30.339247,-97.687286,,,0.0,Accident on Rutherford Ln at Connor Ln.,Rutherford Ln,Austin,Travis,TX,78753-6702,US,US/Central,KATT,2016-11-03 17:51:00,70.0,,90.0,30.17,10.0,Variable,3.5,0.01,Mostly Cloudy,False,False,False,False,False,False,False,False,False,False,False,False,False,Day,Day,Day,Day
A-2545073,Source2,3,2018-10-26 10:52:08,2018-10-26 11:21:22,40.853439,-73.96347,,,0.0,Right lane blocked due to accident on I-95 George Washington Bridge (Upper Level) Northbound at Exits 73 74 Palisades Interstate Pkwy.,I-95 N,Fort Lee,Bergen,NJ,07024,US,US/Eastern,KTEB,2018-10-26 10:51:00,43.0,,62.0,30.15,10.0,Calm,,,Clear,False,False,False,False,False,False,False,False,False,False,False,False,False,Day,Day,Day,Day
A-6756262,Source1,2,2020-12-16 15:58:00,2020-12-16 17:37:38,36.703676,-119.7274,36.700067,-119.727373,0.249,Incident on S WILLOW AVE near HOUSE 2763 Drive with caution., S Willow Ave,Fresno,Fresno,CA,93725-2213,US,US/Pacific,KFAT,2020-12-16 15:53:00,57.0,57.0,55.0,29.81,6.0,NW,3.0,0.0,Haze,False,False,False,False,False,False,False,False,False,False,False,False,False,Day,Day,Day,Day
A-1499141,Source2,3,2020-06-09 12:32:35,2020-06-09 13:17:08,40.00935,-74.85096,,,0.0,Left lane closed due to accident on I-295 Southbound at exit 45.,I-295 N,Mount Holly,Burlington,NJ,08060,US,US/Eastern,KVAY,2020-06-09 12:54:00,,,,29.89,,,,0.0,,False,False,False,False,False,False,False,False,False,False,False,False,False,Day,Day,Day,Day
A-3527080,Source1,2,2016-12-16 09:50:46,2016-12-16 15:50:46,34.052609999999994,-118.22647,34.053290000000004,-118.22278,0.216,At US-101/Santa Ana Fwy/Mission Rd - Accident.,US-101 S,Los Angeles,Los Angeles,CA,90033,US,US/Pacific,KCQT,2016-12-16 09:47:00,57.9,,93.0,29.87,10.0,Variable,4.6,,Overcast,False,False,False,False,True,False,False,False,False,False,False,True,False,Day,Day,Day,Day
A-2504783,Source2,2,2018-10-08 06:52:25,2018-10-08 07:22:00,33.841877000000004,-80.731941,,,0.0,Accident on SC-48 Bluff Rd at Congaree Church Rd.,Bluff Rd,Gadsden,Richland,SC,29052-9552,US,US/Eastern,KMMT,2018-10-08 06:56:00,72.0,,100.0,30.2,10.0,NE,5.8,,Partly Cloudy,False,False,False,False,False,False,False,False,False,True,False,False,False,Night,Night,Day,Day
A-3984735,Source1,2,2022-12-22 08:27:38,2022-12-22 10:08:32,40.00084519,-75.82346319999998,39.98268519,-75.9236832,5.452000000000001,Incident on US-30 WB near COUNTRY CLUB RD Drive with caution.,US-30,Coatesville,Chester,PA,19320,US,US/Eastern,KMQS,2022-12-22 08:35:00,30.0,30.0,100.0,29.6,4.0,CALM,0.0,0.0,Light Rain,False,False,False,False,True,False,False,False,False,False,False,False,False,Day,Day,Day,Day
A-5582764,Source1,2,2021-09-10 13:02:00,2021-09-10 14:41:17,37.52149,-109.4941,37.526568,-109.494109,0.351,Incident on US-191 near US-191 Drive with caution.,S Highway 191,Blanding,San Juan,UT,84511,US,US/Mountain,K4BL,2021-09-10 12:55:00,84.0,84.0,18.0,24.46,10.0,SW,5.0,,,False,False,False,False,False,False,False,False,False,False,False,False,False,Day,Day,Day,Day
A-4478841,Source1,2,2022-05-17 12:29:30,2022-05-17 14:31:37,32.829341,-96.8257,32.829498,-96.826917,0.071,Stationary traffic from N Versailles Ave to Rawlins St due to accident., Lemmon Ave,Dallas,Dallas,TX,75209-6226,US,US/Central,KDAL,2022-05-17 12:53:00,88.0,88.0,46.0,29.41,10.0,S,13.0,0.0,Cloudy,False,False,False,False,False,False,False,False,False,False,False,False,False,Day,Day,Day,Day
A-6515654,Source1,2,2021-01-30 20:51:07,2021-01-30 22:52:48,44.836718,-93.398278,44.836973,-93.398298,0.018,Accident on CR-1/Pioneer Trl (US-169) from Marth Rd (US-169) to US-169 N.,US-169 N,Minneapolis,Hennepin,MN,55438,US,US/Central,KFCM,2021-01-30 20:53:00,31.0,23.0,85.0,28.98,7.0,NE,8.0,0.0,Cloudy,False,False,False,False,False,False,False,False,False,False,False,False,False,Night,Night,Night,Night
A-4098454,Source1,2,2022-09-05 07:38:00,2022-09-05 08:54:44,29.354818,-98.527266,29.355992,-98.526257,0.101,Incident on I-35 NB near S. W MILITARY Drive with caution.,I-35 N,San Antonio,Bexar,TX,78224,US,US/Central,KSKF,2022-09-05 07:46:00,73.0,73.0,100.0,29.24,10.0,CALM,0.0,0.0,Cloudy,False,False,False,False,False,False,False,False,False,False,False,False,False,Day,Day,Day,Day
A-5909176,Source1,2,2021-08-29 12:17:30,2021-08-29 15:42:33,37.50281,-77.722326,37.505932,-77.715287,0.442,Slow traffic on US-60 E from County Line Rd (Midlothian Tpke/US-60) to Watkins Centre Pkwy (Midlothian Tpke/US-60) due to accident., Midlothian Tpke,Midlothian,Chesterfield,VA,23113-7704,US,US/Eastern,KFCI,2021-08-29 12:18:00,82.0,82.0,74.0,29.93,10.0,ENE,10.0,0.0,Mostly Cloudy,False,False,False,False,False,False,False,False,False,False,False,False,False,Day,Day,Day,Day
A-5150158,Source1,2,2022-12-06 08:02:00,2022-12-06 08:24:00,33.899216,-84.47131800000002,33.893059,-84.46289,0.644,Slow traffic on I-75 S - I-75 N at Northeast Cobb due to accident.,I-75 N,Atlanta,Cobb,GA,30339,US,US/Eastern,KMGE,2022-12-06 07:55:00,46.0,44.0,95.0,28.99,1.0,E,5.0,0.01,Light Drizzle,False,False,False,False,False,False,False,False,False,False,False,False,False,Day,Day,Day,Day
A-1405375,Source2,2,2020-07-30 07:49:20,2020-07-30 08:49:36,33.364574,-82.076797,,,0.0,Accident on Windsor Spring Rd at Boykin Rd.,Windsor Spring Rd,Hephzibah,Richmond,GA,30815-7943,US,US/Eastern,KAGS,2020-07-30 07:53:00,78.0,78.0,87.0,29.82,10.0,SW,5.0,0.0,Cloudy,False,False,False,False,False,False,False,False,False,False,False,False,False,Day,Day,Day,Day
A-5474541,Source1,2,2021-12-12 16:25:30,2021-12-12 17:01:30,30.180986,-81.7396,30.186885,-81.739257,0.408,Stationary traffic on FL-21 from FL-224/Loch Rane Blvd/Kingsley Ave (FL-21) to Wells Rd (FL-21) due to accident., Blanding Blvd,Orange Park,Clay,FL,32073-2629,US,US/Eastern,KNIP,2021-12-12 16:53:00,63.0,63.0,81.0,30.21,10.0,ENE,10.0,0.0,Cloudy,False,False,True,False,False,False,False,False,False,False,False,False,False,Day,Day,Day,Day
A-6399694,Source1,2,2021-02-09 21:12:33,2021-02-09 22:12:33,45.506433,-122.715429,45.511443,-122.705539,0.591,A crash has occurred causing no to minimum delays. Use caution.,Sunset Hwy E,Portland,Multnomah,OR,97221,US,US/Pacific,KPDX,2021-02-09 20:53:00,36.0,36.0,67.0,30.14,10.0,ESE,3.0,0.0,Fair,False,False,False,False,False,False,False,False,False,False,False,False,False,Night,Night,Night,Night
A-241773,Source2,2,2016-11-14 07:58:08,2016-11-14 08:42:53,40.072372,-76.268105,,,0.01,Slow traffic due to accident on PA-23 New Holland Pike at Butter Rd.,New Holland Pike,Lancaster,Lancaster,PA,17601-5519,US,US/Eastern,KLNS,2016-11-14 07:53:00,28.9,,89.0,30.1,7.0,Calm,,,Clear,False,False,False,False,False,False,False,False,False,False,False,True,False,Day,Day,Day,Day
A-6922951,Source1,2,2020-11-03 04:16:00,2020-11-03 05:17:30,33.807169,-118.207023,33.826667,-118.207424,1.347,Slow traffic on I-710 from Willow St (I-710) to I-405/San Diego Fwy (I-710) due to accident.,I-710 N,Long Beach,Los Angeles,CA,90806,US,US/Pacific,KLGB,2020-11-03 04:11:00,60.0,60.0,96.0,29.93,1.0,CALM,0.0,0.0,Fog,False,False,False,False,False,False,False,False,False,False,False,False,False,Night,Night,Night,Night
A-4436136,Source1,2,2022-02-26 21:03:30,2022-02-26 22:29:00,34.042949,-118.272635,34.052844,-118.25874,1.0490000000000002,Stationary traffic on CA-110 N - Harbor Fwy N from I-110/I-10/Santa Monica Fwy (CA-110) to 5th St/6th St (CA-110) due to accident.,CA-110 N,Los Angeles,Los Angeles,CA,90015,US,US/Pacific,KCQT,2022-02-26 20:47:00,53.0,53.0,52.0,30.07,10.0,CALM,0.0,0.0,Fair,False,False,False,False,False,False,False,False,False,False,False,False,False,Night,Night,Night,Night
A-2398318,Source2,2,2018-12-14 16:13:26,2018-12-14 16:43:15,30.394621,-97.706596,,,0.0,Accident on Stonehollow Dr at Metric Blvd.,Metric Blvd,Austin,Travis,TX,78758-4035,US,US/Central,KATT,2018-12-14 15:51:00,52.0,,57.0,30.09,10.0,NNW,10.4,,Overcast,False,False,False,False,False,False,False,False,False,False,False,False,False,Day,Day,Day,Day
A-6439570,Source1,2,2021-02-20 13:49:00,2021-02-20 15:54:08,37.758668,-122.212405,37.758271,-122.212055,0.033,Accident on High St (I-880) from 66th Ave (I-880) to Nimitz Fwy S - I-880 S.,I-880 S,Oakland,Alameda,CA,94621,US,US/Pacific,KOAK,2021-02-20 13:53:00,62.0,62.0,46.0,30.34,10.0,W,16.0,0.0,Partly Cloudy,False,False,False,False,False,False,False,False,False,False,False,False,False,Day,Day,Day,Day
A-492874,Source2,3,2017-07-21 20:45:53,2017-07-21 21:15:14,37.585072,-121.872681,,,0.0,Lane blocked and slow traffic due to accident on I-680 Northbound at Exits 21 21A 21B CA-84 Paloma Rd.,I-680 N,Sunol,Alameda,CA,94586,US,US/Pacific,KLVK,2017-07-21 20:53:00,64.9,,65.0,29.93,10.0,NW,9.2,,Clear,False,False,False,False,True,False,False,False,False,False,False,False,False,Night,Day,Day,Day
A-3946680,Source1,2,2022-06-01 10:45:35,2022-06-01 12:45:39,43.870013,-95.114077,43.86884600000001,-95.11491,0.091,Accident on MN-60 (US-71) from MN-62/CR-17/6th St (US-71) to US-71 N - MN-60 - US-71 S., Highway 60 71 N,Windom,Cottonwood,MN,56101-2022,US,US/Central,KMWM,2022-06-01 11:42:00,64.0,64.0,45.0,28.67,10.0,WSW,6.0,0.0,Fair,False,False,False,False,False,False,False,False,False,False,False,False,False,Day,Day,Day,Day
A-7549796,Source1,3,2018-08-17 14:57:14,2018-08-17 15:26:45,37.163121,-121.664068,37.163121,-121.664068,0.0,At Cochrane Rd/Exit 367 - Accident.,S Valley Fwy S,Morgan Hill,Santa Clara,CA,95037,US,US/Pacific,KE16,2018-08-17 15:00:00,95.0,,26.0,30.01,10.0,NW,3.5,,Clear,False,False,False,False,False,False,False,False,False,False,False,False,False,Day,Day,Day,Day
A-7209374,Source1,3,2020-03-03 09:21:02,2020-03-03 09:50:24,39.78431,-105.11665,39.78431,-105.11665,0.0,At CO-72/44th Ave/Ward Rd/Exit 266 - Accident.,I-70 W,Wheat Ridge,Jefferson,CO,80033,US,US/Mountain,KBJC,2020-03-03 09:20:00,39.0,35.0,49.0,24.23,10.0,NE,6.0,0.0,Fair,False,False,False,False,False,False,False,False,False,False,False,False,False,Day,Day,Day,Day
A-3177021,Source2,2,2017-11-09 08:51:36,2017-11-09 09:21:00,31.291983,-89.303436,,,0.0,Right lane blocked due to accident on US-49 Southbound at Wsf Tatum Blvd.,US Highway 49,Hattiesburg,Forrest,MS,39401,US,US/Central,KHBG,2017-11-09 08:53:00,53.1,,93.0,30.21,10.0,North,8.1,,Overcast,False,False,True,True,False,False,False,False,False,False,False,True,False,Day,Day,Day,Day
A-2490733,Source2,2,2018-10-01 09:38:31,2018-10-01 10:23:17,45.576553,-122.643944,,,0.0,Accident on Columbia Blvd at 21st Ave.,NE Columbia Blvd,Portland,Multnomah,OR,97211-1929,US,US/Pacific,KPDX,2018-10-01 09:53:00,64.0,,65.0,29.85,10.0,ESE,5.8,,Overcast,False,False,True,False,False,False,False,False,False,False,False,True,False,Day,Day,Day,Day
A-4098209,Source1,4,2022-06-13 01:00:30.000000000,2022-08-01 01:03:31.000000000,32.380759999999995,-111.216743,32.383123,-111.21674099999998,0.163, well as improve overall safety promote lower speeds and reduce conflict points. Due to the roundabouts proximity to Marana High School Town of Marana is working with Marana Unified School District to provide guidance for parents to talk to their students about driving safety and how to safely navigate a roundabout. Parents should keep an eye out for more information ahead of the school year. For more information please use the following link to learn more about the benefits of roundabouts as well as more educational resources: https://safety.fhwa.dot.gov/intersection/roundabouts/ https://azdot.gov/sites/default/files/media/2019/11/Flyer-How-to-Drive-in-a-Roundabout.pdf, W Twin Peaks Rd,Marana,Pima,AZ,85653,US,US/Mountain,KRYN,2022-06-13 06:53:00,77.0,77.0,29.0,27.34,10.0,CALM,0.0,,Fair,False,False,False,False,False,False,False,False,False,False,False,False,False,Night,Night,Night,Night
A-1448137,Source2,2,2020-05-26 11:24:26,2020-05-26 12:24:15,41.857899,-88.138573,,,0.0,Accident on Fapp Cir at IL-38 Roosevelt Rd.,W Roosevelt Rd,Wheaton,DuPage,IL,60187-6029,US,US/Central,KDPA,2020-05-26 11:52:00,80.0,80.0,67.0,29.19,10.0,S,10.0,0.0,Mostly Cloudy,False,False,False,False,False,False,False,False,False,False,False,False,False,Day,Day,Day,Day
A-5457713,Source1,2,2022-12-16 18:24:25,2022-12-16 19:59:31,41.35087,-81.490338,41.350314,-81.48964699999998,0.053,Incident on BROADWAY AVE near BROADWAY AVE Drive with caution., Broadway Ave,Bedford,Cuyahoga,OH,44146-6518,US,US/Eastern,KBKL,2022-12-16 18:53:00,37.0,30.0,65.0,29.12,9.0,S,9.0,0.0,Light Snow,False,False,False,False,False,False,False,False,False,False,False,False,False,Night,Night,Night,Day
A-230519,Source2,3,2016-12-12 08:00:13,2016-12-12 08:45:00,38.910633,-77.21751400000002,,,0.01,Accident on I-495 Capital Beltway Northbound at Exits 47A-B 47B-A VA-7 Leesburg Pike.,Capital Beltway N,Mc Lean,Fairfax County,VA,22102,US,US/Eastern,KDCA,2016-12-12 07:52:00,45.0,40.1,97.0,29.93,10.0,SSW,9.2,0.0,Overcast,False,False,False,False,False,False,False,False,False,False,False,False,False,Day,Day,Day,Day
A-6227648,Source1,2,2021-12-08 19:39:44,2021-12-08 21:39:44,44.114427,-121.291871,44.114546,-121.29188899999998,0.008,An unconfirmed report of hazardous debris has been received. Use caution., N Highway 97,Bend,Deschutes,OR,97701-8091,US,US/Pacific,KBDN,2021-12-08 19:35:00,36.0,31.0,70.0,26.37,10.0,N,6.0,0.0,Cloudy,False,False,False,False,False,False,False,False,False,False,False,False,False,Night,Night,Night,Night
A-1713289,Source3,2,2019-12-12 14:26:14,2019-12-12 15:56:00,34.024059,-117.335464,,,0.0,Accident on I-215 Southbound at Exit 37 / La Cadena Dr.,I-215 S,Colton,San Bernardino,CA,92324,US,US/Pacific,KSBD,2019-12-12 14:52:00,73.0,73.0,27.0,28.92,7.0,CALM,0.0,0.0,Mostly Cloudy,False,False,False,False,False,False,False,False,False,False,False,False,False,Day,Day,Day,Day
A-3622164,Source1,2,2017-05-22 08:56:17,2017-05-22 14:56:17,37.40328,-122.04709,37.40563,-122.05676,0.555,At Ellis St - Accident. Left lane blocked.,US-101 N,Mountain View,Santa Clara,CA,94043,US,US/Pacific,KNUQ,2017-05-22 08:56:00,62.1,,80.0,30.0,10.0,NNW,5.8,,Partly Cloudy,False,False,False,False,True,False,False,False,False,False,False,False,False,Day,Day,Day,Day
A-4950221,Source1,2,2022-07-13 16:54:00.000000000,2022-07-13 17:14:30.000000000,42.167492,-87.8714,42.167512,-87.87836300000002,0.357,Stationary traffic on Deerfield Rd from Wilmot Rd to Saunders Rd due to accident., Deerfield Rd,Deerfield,Lake,IL,60015,US,US/Central,KPWK,2022-07-13 16:52:00,75.0,75.0,57.0,29.33,10.0,NE,13.0,0.0,Fair,False,False,False,False,False,False,False,False,False,False,False,False,False,Day,Day,Day,Day
A-529943,Source2,2,2022-08-23 03:40:33,2022-08-23 04:27:43,34.130871,-117.92896299999998,,,0.0,Crash on I-210 Westbound at Exit 38 Irwindale Ave.,I-210,Azusa,Los Angeles,CA,91702,US,US/Pacific,KEMT,2022-08-23 03:46:00,66.0,66.0,90.0,29.72,9.0,CALM,0.0,0.0,Cloudy,False,False,False,False,True,False,False,False,False,False,False,False,False,Night,Night,Night,Night
A-3440527,Source1,2,2016-08-31 08:46:13,2016-08-31 14:46:13,29.66438,-95.4639,29.66438,-95.46406,0.01,At Post Oak Rd - Accident.,Willowbend Blvd,Houston,Harris,TX,77035,US,US/Central,KMCJ,2016-08-31 19:15:00,89.6,,49.0,29.82,10.0,North,6.9,,Clear,False,False,True,False,False,False,False,False,False,False,False,True,False,Day,Day,Day,Day
A-4429055,Source1,2,2022-09-26 16:46:26,2022-09-26 19:04:51,33.586732,-84.510786,33.549112,-84.570599,4.314,Stationary traffic on I-85 S - GA-403 S from I-85/Exit 15 (I-85) to GA-74/Exit 61 (I-85) due to accident.,GA-403 S,Atlanta,Fulton,GA,30349,US,US/Eastern,KATL,2022-09-26 16:52:00,80.0,80.0,30.0,28.82,10.0,NW,8.0,0.0,Fair,False,False,False,False,False,False,False,False,False,False,False,False,False,Day,Day,Day,Day
A-1958987,Source2,2,2019-07-09 06:57:41,2019-07-09 07:57:33,39.011238,-122.895859,,,0.0,Accident on Big Valley Rd at Soda Bay Rd. No recent updates.,Soda Bay Rd,Lakeport,Lake,CA,95453-9636,US,US/Pacific,KUKI,2019-07-09 06:56:00,54.0,54.0,80.0,29.34,10.0,CALM,0.0,0.0,Fair,False,False,False,False,False,False,False,False,False,False,False,False,False,Day,Day,Day,Day
